{
  "status": 0,
  "message": "ok",
  "total": 109,
  "result_type": "poi_type",
  "query_type": "general",
  "results": [
    {
      "name": "朱家尖风景名胜区",
      "location": {
        "lat": 29.911127,
        "lng": 122.392471
      },
      "address": "浙江省舟山市普陀区度假村路与朱乌线交叉路口东北侧",
      "province": "浙江省",
      "city": "舟山市",
      "area": "普陀区",
      "street_id": "",
      "telephone": "(0580)6032006",
      "detail": 1,
      "uid": "97eb88c3414c34f18a36ee31",
      "detail_info": {
        "classified_poi_tag": "旅游景点;4A景区",
        "new_alias": "朱家尖风景区;朱家尖景区",
        "tag": "旅游景点;风景区",
        "navi_location": {
          "lng": 122.39382051276,
          "lat": 29.917715105915
        },
        "type": "scope",
        "detail_url": "http://api.map.baidu.com/place/detail?uid=97eb88c3414c34f18a36ee31&output=html&source=placeapi_v2",
        "overall_rating": "4.5",
        "comment_num": "38",
        "shop_hours": "00:00-24:00",
        "label": "景区,",
        "children": []
      }
    },
    {
      "name": "舟山市普陀山风景区",
      "location": {
        "lat": 30.003065,
        "lng": 122.395098
      },
      "address": "浙江省舟山市普陀区梅岑路1号",
      "province": "浙江省",
      "city": "舟山市",
      "area": "普陀区",
      "street_id": "",
      "telephone": "(0580)3191919",
      "detail": 1,
      "uid": "a5097bfa3e2a5362f03cbace",
      "detail_info": {
        "classified_poi_tag": "旅游景点;5A景区",
        "new_alias": "普陀山风景名胜区;普陀山国家级风景名胜区;普陀山景区;舟山市普陀山风景名胜区",
        "tag": "旅游景点;风景区",
        "navi_location": {
          "lng": 122.37893113794,
          "lat": 29.953475113641
        },
        "type": "scope",
        "detail_url": "http://api.map.baidu.com/place/detail?uid=a5097bfa3e2a5362f03cbace&output=html&source=placeapi_v2",
        "overall_rating": "4.7",
        "comment_num": "200",
        "shop_hours": "06:30-21:50",
        "label": "AAAAA景区,岛屿/半岛",
        "children": []
      }
    },
    {
      "name": "定海古城",
      "location": {
        "lat": 30.02347,
        "lng": 122.114362
      },
      "address": "舟山市定海区县前街与人民中路交叉路口往西约50米(红都宾馆西南侧)",
      "province": "浙江省",
      "city": "舟山市",
      "area": "定海区",
      "street_id": "",
      "detail": 1,
      "uid": "09427de19548054f25d2bba5",
      "detail_info": {
        "classified_poi_tag": "旅游景点;人文景观;文物古迹",
        "tag": "旅游景点;文物古迹",
        "navi_location": {
          "lng": 122.11390196892,
          "lat": 30.02318421039
        },
        "type": "scope",
        "detail_url": "http://api.map.baidu.com/place/detail?uid=09427de19548054f25d2bba5&output=html&source=placeapi_v2",
        "overall_rating": "4.5",
        "comment_num": "27",
        "shop_hours": "00:00-24:00",
        "label": "景区,历史建筑 古迹",
        "children": []
      }
    },
    {
      "name": "洛迦山景区",
      "location": {
        "lat": 29.974654,
        "lng": 122.456002
      },
      "address": "浙江省舟山市普陀区普陀山景区内",
      "province": "浙江省",
      "city": "舟山市",
      "area": "普陀区",
      "telephone": "(0580)3191919",
      "detail": 1,
      "uid": "57b5110269cd6257e81e97f6",
      "detail_info": {
        "classified_poi_tag": "旅游景点;自然景观;风景区",
        "tag": "旅游景点;风景区",
        "type": "scope",
        "detail_url": "http://api.map.baidu.com/place/detail?uid=57b5110269cd6257e81e97f6&output=html&source=placeapi_v2",
        "overall_rating": "4.7",
        "comment_num": "19",
        "shop_hours": "07:30-13:00",
        "label": "AAAAA景区,",
        "children": [],
        "parent_id": "a5097bfa3e2a5362f03cbace"
      }
    },
    {
      "name": "海滨公园(海洲路)",
      "location": {
        "lat": 29.965678,
        "lng": 122.329883
      },
      "address": "浙江省舟山市普陀区海洲路与金城街交汇处东侧",
      "province": "浙江省",
      "city": "舟山市",
      "area": "普陀区",
      "street_id": "",
      "telephone": "(0580)6371302",
      "detail": 1,
      "uid": "253c7f325e7f867ed6b74e47",
      "detail_info": {
        "classified_poi_tag": "旅游景点;公园",
        "tag": "旅游景点;公园",
        "navi_location": {
          "lng": 122.32773193694,
          "lat": 29.96344707266
        },
        "type": "scope",
        "detail_url": "http://api.map.baidu.com/place/detail?uid=253c7f325e7f867ed6b74e47&output=html&source=placeapi_v2",
        "overall_rating": "5.0",
        "comment_num": "3",
        "shop_hours": "00:00-24:00",
        "label": "景区,",
        "children": []
      }
    },
    {
      "name": "普陀山观音法界",
      "location": {
        "lat": 29.930269,
        "lng": 122.394162
      },
      "address": "浙江省舟山市普陀区朱家尖街道观音法界居士学院",
      "province": "浙江省",
      "city": "舟山市",
      "area": "普陀区",
      "street_id": "0e5f15ca1cb24785bd4842d0",
      "telephone": "(0580)6878000",
      "detail": 1,
      "uid": "0e5f15ca1cb24785bd4842d0",
      "detail_info": {
        "classified_poi_tag": "旅游景点",
        "new_alias": "观音文化园;普陀山观音法界",
        "tag": "旅游景点",
        "navi_location": {
          "lng": 122.39630164211,
          "lat": 29.927758250462
        },
        "type": "scope",
        "detail_url": "http://api.map.baidu.com/place/detail?uid=0e5f15ca1cb24785bd4842d0&output=html&source=placeapi_v2",
        "overall_rating": "4.8",
        "comment_num": "43",
        "shop_hours": "09:00-17:00",
        "label": "景区,",
        "children": [],
        "parent_id": "97eb88c3414c34f18a36ee31"
      }
    },
    {
      "name": "岱山风景名胜区",
      "location": {
        "lat": 30.328922,
        "lng": 122.188232
      },
      "address": "舟山市岱山县高亭镇山外路195号",
      "province": "浙江省",
      "city": "舟山市",
      "area": "岱山县",
      "detail": 1,
      "uid": "16977ee3139452f49f82eaf9",
      "detail_info": {
        "classified_poi_tag": "旅游景点;自然景观;风景区",
        "tag": "旅游景点;风景区",
        "navi_location": {
          "lng": 122.18802511979,
          "lat": 30.329010905185
        },
        "type": "scope",
        "detail_url": "http://api.map.baidu.com/place/detail?uid=16977ee3139452f49f82eaf9&output=html&source=placeapi_v2",
        "overall_rating": "5.0",
        "comment_num": "16",
        "shop_hours": "00:00-24:00",
        "label": "景区,",
        "children": []
      }
    },
    {
      "name": "乌石塘景区",
      "location": {
        "lat": 29.926877,
        "lng": 122.411668
      },
      "address": "浙江省舟山市普陀区度假村路与朱乌线交叉路口东北侧朱家尖风景名胜区内",
      "province": "浙江省",
      "city": "舟山市",
      "area": "普陀区",
      "telephone": "(0580)6031021",
      "detail": 1,
      "uid": "c61bd3050fec336bc27da2ef",
      "detail_info": {
        "classified_poi_tag": "旅游景点;自然景观;风景区",
        "new_alias": "大乌石塘",
        "tag": "旅游景点;风景区",
        "navi_location": {
          "lng": 122.40984435208,
          "lat": 29.928223621653
        },
        "type": "scope",
        "detail_url": "http://api.map.baidu.com/place/detail?uid=c61bd3050fec336bc27da2ef&output=html&source=placeapi_v2",
        "overall_rating": "3.9",
        "comment_num": "56",
        "shop_hours": "08:00-16:30",
        "label": "景区,岛屿/半岛",
        "children": [],
        "parent_id": "97eb88c3414c34f18a36ee31"
      }
    },
    {
      "name": "沈家门渔港",
      "location": {
        "lat": 29.949963,
        "lng": 122.316453
      },
      "address": "浙江省舟山市普陀区滨港路普陀区中兴农贸市场(中兴路)西南侧约270米",
      "province": "浙江省",
      "city": "舟山市",
      "area": "普陀区",
      "street_id": "59dbb40d5599a9ed3010af82",
      "telephone": "13335805211",
      "detail": 1,
      "uid": "59dbb40d5599a9ed3010af82",
      "detail_info": {
        "classified_poi_tag": "旅游景点;4A景区",
        "new_alias": "沈家门港",
        "tag": "旅游景点;风景区",
        "navi_location": {
          "lng": 122.31639029321,
          "lat": 29.950175938264
        },
        "type": "scope",
        "detail_url": "http://api.map.baidu.com/place/detail?uid=59dbb40d5599a9ed3010af82&output=html&source=placeapi_v2",
        "overall_rating": "4.7",
        "image_num": "21",
        "comment_num": "12",
        "shop_hours": "00:00-24:00",
        "label": "景区,",
        "children": []
      }
    },
    {
      "name": "嵊泗列岛风景名胜区",
      "location": {
        "lat": 30.717048,
        "lng": 122.472075
      },
      "address": "嵊泗县李五线",
      "province": "浙江省",
      "city": "舟山市",
      "area": "嵊泗县",
      "street_id": "",
      "telephone": "(0580)5070706",
      "detail": 1,
      "uid": "c2fd07fb607ee01f6cc02ca7",
      "detail_info": {
        "classified_poi_tag": "旅游景点",
        "tag": "旅游景点",
        "navi_location": {
          "lng": 122.53541163315,
          "lat": 30.724608779066
        },
        "type": "scope",
        "detail_url": "http://api.map.baidu.com/place/detail?uid=c2fd07fb607ee01f6cc02ca7&output=html&source=placeapi_v2",
        "overall_rating": "4.5",
        "comment_num": "76",
        "shop_hours": "00:00-24:00",
        "label": "景区,海滨浴场",
        "children": []
      }
    },
    {
      "name": "白山景区",
      "location": {
        "lat": 29.939005,
        "lng": 122.392335
      },
      "address": "舟山市普陀区朱家尖镇朱家尖",
      "province": "浙江省",
      "city": "舟山市",
      "area": "普陀区",
      "street_id": "",
      "telephone": "(0580)6031033",
      "detail": 1,
      "uid": "f696f3c221208aea1a11d584",
      "detail_info": {
        "classified_poi_tag": "旅游景点;自然景观;风景区",
        "new_alias": "白山风景区;朱家尖白山景区",
        "tag": "旅游景点;风景区",
        "navi_location": {
          "lng": 122.38973056199,
          "lat": 29.936430080547
        },
        "type": "scope",
        "detail_url": "http://api.map.baidu.com/place/detail?uid=f696f3c221208aea1a11d584&output=html&source=placeapi_v2",
        "overall_rating": "4.6",
        "comment_num": "15",
        "shop_hours": "08:00-16:30",
        "label": "AAAA景区,风景名胜",
        "children": [],
        "parent_id": "97eb88c3414c34f18a36ee31"
      }
    },
    {
      "name": "舟山鸦片战争遗址公园",
      "location": {
        "lat": 30.016698,
        "lng": 122.092837
      },
      "address": "浙江省舟山市定海区环城南路和竹山门路交叉路口",
      "province": "浙江省",
      "city": "舟山市",
      "area": "定海区",
      "street_id": "161a0ed2bae1cd535cd4feee",
      "telephone": "(0580)2380424",
      "detail": 1,
      "uid": "161a0ed2bae1cd535cd4feee",
      "detail_info": {
        "classified_poi_tag": "旅游景点;公园",
        "new_alias": "竹山公园",
        "tag": "旅游景点;公园",
        "navi_location": {
          "lng": 122.09559627947,
          "lat": 30.015781670715
        },
        "type": "scope",
        "detail_url": "http://api.map.baidu.com/place/detail?uid=161a0ed2bae1cd535cd4feee&output=html&source=placeapi_v2",
        "overall_rating": "4.7",
        "comment_num": "8",
        "shop_hours": "00:00-24:00",
        "label": "景区,旅游景点",
        "children": []
      }
    },
    {
      "name": "东极岛",
      "location": {
        "lat": 30.182581,
        "lng": 122.712155
      },
      "address": "舟山市普陀区东极镇",
      "province": "",
      "city": "",
      "area": "",
      "street_id": "",
      "telephone": "(0580)6048331",
      "detail": 1,
      "uid": "a74481d61d983b5ff503b86b",
      "detail_info": {
        "classified_poi_tag": "旅游景点",
        "new_alias": "东极岛风景区",
        "tag": "旅游景点",
        "navi_location": {
          "lng": 122.32704221797,
          "lat": 29.947448307706
        },
        "type": "scope",
        "detail_url": "http://api.map.baidu.com/place/detail?uid=a74481d61d983b5ff503b86b&output=html&source=placeapi_v2",
        "overall_rating": "4.3",
        "comment_num": "75",
        "shop_hours": "00:00-24:00",
        "label": "景区,",
        "children": []
      }
    },
    {
      "name": "定海湿地公园",
      "location": {
        "lat": 30.035304,
        "lng": 122.120099
      },
      "address": "蟠洋山路128号",
      "province": "浙江省",
      "city": "舟山市",
      "area": "定海区",
      "street_id": "",
      "detail": 1,
      "uid": "912c0e0f52ef7845d4851f91",
      "detail_info": {
        "classified_poi_tag": "旅游景点;公园",
        "new_alias": "定海城北湿地公园",
        "tag": "旅游景点;公园",
        "navi_location": {
          "lng": 122.12173959287,
          "lat": 30.036235136766
        },
        "type": "scope",
        "detail_url": "http://api.map.baidu.com/place/detail?uid=912c0e0f52ef7845d4851f91&output=html&source=placeapi_v2",
        "overall_rating": "5.0",
        "comment_num": "9",
        "shop_hours": "00:00-24:00",
        "label": "景区,",
        "children": []
      }
    },
    {
      "name": "秀山沙滩群",
      "location": {
        "lat": 30.170693,
        "lng": 122.189379
      },
      "address": "浙江省舟山市岱山县秀山景区东部",
      "province": "浙江省",
      "city": "舟山市",
      "area": "岱山县",
      "detail": 1,
      "uid": "eaab733b059aed36970319a4",
      "detail_info": {
        "classified_poi_tag": "旅游景点;海滨浴场",
        "tag": "旅游景点;海滨浴场",
        "navi_location": {
          "lng": 122.18868442761,
          "lat": 30.171686872759
        },
        "type": "scope",
        "detail_url": "http://api.map.baidu.com/place/detail?uid=eaab733b059aed36970319a4&output=html&source=placeapi_v2",
        "overall_rating": "4.6",
        "comment_num": "8",
        "shop_hours": "00:00-24:00",
        "label": "景区,",
        "children": [],
        "parent_id": "78e266d3f4c54a716c47603e"
      }
    },
    {
      "name": "舟山桃花岛风景旅游区",
      "location": {
        "lat": 29.820563,
        "lng": 122.282585
      },
      "address": "浙江省舟山市普陀区桃花镇",
      "province": "浙江省",
      "city": "舟山市",
      "area": "普陀区",
      "telephone": "(0580)6063668",
      "detail": 1,
      "uid": "64ff3be17813a6c690114ce9",
      "detail_info": {
        "classified_poi_tag": "旅游景点;4A景区",
        "tag": "旅游景点;风景区",
        "navi_location": {
          "lng": 122.23944313705,
          "lat": 29.829218238078
        },
        "type": "scope",
        "detail_url": "http://api.map.baidu.com/place/detail?uid=64ff3be17813a6c690114ce9&output=html&source=placeapi_v2",
        "overall_rating": "4.4",
        "comment_num": "63",
        "shop_hours": "00:00-24:00",
        "label": " AAAA景区,山",
        "children": []
      }
    },
    {
      "name": "南天门",
      "location": {
        "lat": 29.979248,
        "lng": 122.392613
      },
      "address": "舟山市普陀区普陀山风景区南部",
      "province": "浙江省",
      "city": "舟山市",
      "area": "普陀区",
      "telephone": "(0580)3191919",
      "detail": 1,
      "uid": "5c56edd6ae438227a1d23039",
      "detail_info": {
        "classified_poi_tag": "旅游景点;自然景观;风景区",
        "tag": "旅游景点;风景区",
        "navi_location": {
          "lng": 122.39224410644,
          "lat": 29.981537117479
        },
        "type": "scope",
        "detail_url": "http://api.map.baidu.com/place/detail?uid=5c56edd6ae438227a1d23039&output=html&source=placeapi_v2",
        "overall_rating": "4.8",
        "comment_num": "17",
        "shop_hours": "00:00-24:00",
        "label": "景区,历史建筑 古迹",
        "children": [],
        "parent_id": "a5097bfa3e2a5362f03cbace"
      }
    },
    {
      "name": "普陀山风景名胜区-百步沙",
      "location": {
        "lat": 29.990801,
        "lng": 122.397212
      },
      "address": "舟山市普陀区普济路312号",
      "province": "浙江省",
      "city": "舟山市",
      "area": "普陀区",
      "telephone": "(0580)6093588",
      "detail": 1,
      "uid": "4cddc312d09e400fe115f990",
      "detail_info": {
        "classified_poi_tag": "旅游景点;人文景观;文物古迹",
        "tag": "旅游景点;文物古迹",
        "type": "scope",
        "detail_url": "http://api.map.baidu.com/place/detail?uid=4cddc312d09e400fe115f990&output=html&source=placeapi_v2",
        "overall_rating": "4.6",
        "comment_num": "12",
        "shop_hours": "00:00-24:00",
        "label": "景区,",
        "children": [],
        "parent_id": "a5097bfa3e2a5362f03cbace"
      }
    },
    {
      "name": "梵音古洞",
      "location": {
        "lat": 30.008209,
        "lng": 122.422981
      },
      "address": "舟山市普陀区普陀山梵音洞景区内",
      "province": "浙江省",
      "city": "舟山市",
      "area": "普陀区",
      "detail": 1,
      "uid": "750ec165bda711564c3a5939",
      "detail_info": {
        "classified_poi_tag": "旅游景点;人文景观;文物古迹",
        "new_alias": "普陀山风景名胜区-梵音洞",
        "tag": "旅游景点;文物古迹",
        "navi_location": {
          "lng": 122.42318535894,
          "lat": 30.008046809931
        },
        "type": "scope",
        "detail_url": "http://api.map.baidu.com/place/detail?uid=750ec165bda711564c3a5939&output=html&source=placeapi_v2",
        "overall_rating": "4.7",
        "comment_num": "23",
        "shop_hours": "06:00-18:00",
        "label": "景区,公园,文化宗教",
        "children": [],
        "parent_id": "a5097bfa3e2a5362f03cbace"
      }
    },
    {
      "name": "南洞艺谷",
      "location": {
        "lat": 30.094882,
        "lng": 122.139671
      },
      "address": "舟山市定海区干览镇新建社区里陈村附近",
      "province": "浙江省",
      "city": "舟山市",
      "area": "定海区",
      "telephone": "(0580)8190909",
      "detail": 1,
      "uid": "7e377a42d5027882d7851f5e",
      "detail_info": {
        "classified_poi_tag": "旅游景点;4A景区",
        "tag": "旅游景点;风景区",
        "navi_location": {
          "lng": 122.14907197171,
          "lat": 30.09438253834
        },
        "type": "scope",
        "detail_url": "http://api.map.baidu.com/place/detail?uid=7e377a42d5027882d7851f5e&output=html&source=placeapi_v2",
        "overall_rating": "4.6",
        "comment_num": "12",
        "shop_hours": "08:30-16:30",
        "label": "景区,民俗村",
        "children": []
      }
    },
    {
      "name": "东沙古镇",
      "location": {
        "lat": 30.318118,
        "lng": 122.153495
      },
      "address": "舟山市岱山县东沙镇山咀头一路70号",
      "province": "浙江省",
      "city": "舟山市",
      "area": "岱山县",
      "street_id": "44207646c9107568deee8be9",
      "telephone": "(0580)7336166",
      "detail": 1,
      "uid": "44207646c9107568deee8be9",
      "detail_info": {
        "classified_poi_tag": "旅游景点;人文景观;古村古镇;古镇",
        "new_alias": "东沙古渔镇景区;东沙古渔镇",
        "tag": "旅游景点;风景区",
        "navi_location": {
          "lng": 122.15048161771,
          "lat": 30.320325877089
        },
        "type": "scope",
        "detail_url": "http://api.map.baidu.com/place/detail?uid=44207646c9107568deee8be9&output=html&source=placeapi_v2",
        "overall_rating": "3.6",
        "comment_num": "51",
        "shop_hours": "08:30-16:30",
        "label": "景区,古镇/古村",
        "children": []
      }
    },
    {
      "name": "朱家尖大青山景区",
      "location": {
        "lat": 29.85452,
        "lng": 122.399529
      },
      "address": "舟山市普陀区朱家尖岛南端",
      "province": "浙江省",
      "city": "舟山市",
      "area": "普陀区",
      "telephone": "(0580)6031226",
      "detail": 1,
      "uid": "93cbb0b7fc3a4d6de3110385",
      "detail_info": {
        "classified_poi_tag": "旅游景点;自然景观;风景区",
        "new_alias": "大青山国家公园",
        "tag": "旅游景点;风景区",
        "navi_location": {
          "lng": 122.40106372832,
          "lat": 29.874197782605
        },
        "type": "scope",
        "detail_url": "http://api.map.baidu.com/place/detail?uid=93cbb0b7fc3a4d6de3110385&output=html&source=placeapi_v2",
        "overall_rating": "4.5",
        "comment_num": "167",
        "shop_hours": "08:00-16:45",
        "label": "景区,海滨/沙滩",
        "children": [],
        "parent_id": "97eb88c3414c34f18a36ee31"
      }
    },
    {
      "name": "朱家尖南沙景区",
      "location": {
        "lat": 29.883,
        "lng": 122.415095
      },
      "address": "舟山市普陀区龙眼线",
      "province": "浙江省",
      "city": "舟山市",
      "area": "普陀区",
      "street_id": "2fd2beab5f06dc517adbd2ec",
      "telephone": "(0580)6632545",
      "detail": 1,
      "uid": "2fd2beab5f06dc517adbd2ec",
      "detail_info": {
        "classified_poi_tag": "旅游景点",
        "new_alias": "朱家尖南沙风景区",
        "tag": "旅游景点",
        "navi_location": {
          "lng": 122.41191462511,
          "lat": 29.888853774799
        },
        "type": "scope",
        "detail_url": "http://api.map.baidu.com/place/detail?uid=2fd2beab5f06dc517adbd2ec&output=html&source=placeapi_v2",
        "overall_rating": "4.3",
        "comment_num": "106",
        "shop_hours": "08:00-16:30",
        "label": "景区,海滨/沙滩",
        "children": [],
        "parent_id": "97eb88c3414c34f18a36ee31"
      }
    },
    {
      "name": "小洋山观光平台",
      "location": {
        "lat": 30.635511,
        "lng": 122.073436
      },
      "address": "浙江省舟山市嵊泗县观海东路",
      "province": "浙江省",
      "city": "舟山市",
      "area": "嵊泗县",
      "detail": 1,
      "uid": "6e6c45f4ec39d51c07fef52f",
      "detail_info": {
        "classified_poi_tag": "旅游景点",
        "tag": "旅游景点",
        "navi_location": {
          "lng": 122.07344861372,
          "lat": 30.635223324478
        },
        "type": "scope",
        "detail_url": "http://api.map.baidu.com/place/detail?uid=6e6c45f4ec39d51c07fef52f&output=html&source=placeapi_v2",
        "overall_rating": "3.0",
        "comment_num": "6",
        "shop_hours": "00:00-24:00",
        "label": "景区,",
        "children": []
      }
    },
    {
      "name": "舟山朱家尖国际沙雕艺术广场",
      "location": {
        "lat": 29.884368,
        "lng": 122.415051
      },
      "address": "浙江省舟山市普陀区朱家尖镇朱家尖南沙风景区内",
      "province": "浙江省",
      "city": "舟山市",
      "area": "普陀区",
      "street_id": "",
      "telephone": "(0580)6632545",
      "detail": 1,
      "uid": "373cf757611c256d4354d7ec",
      "detail_info": {
        "classified_poi_tag": "旅游景点",
        "tag": "旅游景点",
        "navi_location": {
          "lng": 122.41339382214,
          "lat": 29.883913332645
        },
        "type": "scope",
        "detail_url": "http://api.map.baidu.com/place/detail?uid=373cf757611c256d4354d7ec&output=html&source=placeapi_v2",
        "overall_rating": "4.2",
        "image_num": "23",
        "comment_num": "17",
        "shop_hours": "08:00-16:30",
        "label": "景区,旅游景点",
        "children": [],
        "parent_id": "2fd2beab5f06dc517adbd2ec"
      }
    },
    {
      "name": "南海观音",
      "location": {
        "lat": 29.980363,
        "lng": 122.40023
      },
      "address": "浙江省舟山市普陀区紫竹路200号",
      "province": "浙江省",
      "city": "舟山市",
      "area": "普陀区",
      "street_id": "",
      "telephone": "(0580)6698199",
      "detail": 1,
      "uid": "edd64ce1ed44d2ec3fe23139",
      "detail_info": {
        "classified_poi_tag": "旅游景点",
        "new_alias": "33米高南海观音;观音大佛;南海观音大佛;普陀山风景名胜区-南海观音大佛",
        "tag": "旅游景点",
        "navi_location": {
          "lng": 122.378138,
          "lat": 29.958839950338
        },
        "type": "scope",
        "detail_url": "http://api.map.baidu.com/place/detail?uid=edd64ce1ed44d2ec3fe23139&output=html&source=placeapi_v2",
        "overall_rating": "4.7",
        "comment_num": "70",
        "shop_hours": "06:00-18:00",
        "label": " 景区,雕像/雕塑",
        "children": [],
        "parent_id": "a5097bfa3e2a5362f03cbace"
      }
    },
    {
      "name": "沈院",
      "location": {
        "lat": 29.979472,
        "lng": 122.314407
      },
      "address": "浙江省舟山市普陀区友好公园内",
      "province": "浙江省",
      "city": "舟山市",
      "area": "普陀区",
      "street_id": "",
      "telephone": "(0580)3817788",
      "detail": 1,
      "uid": "4c5fb7b6a871a2a00b1cc731",
      "detail_info": {
        "classified_poi_tag": "旅游景点",
        "tag": "旅游景点",
        "navi_location": {
          "lng": 122.3147786823,
          "lat": 29.974390707294
        },
        "type": "scope",
        "detail_url": "http://api.map.baidu.com/place/detail?uid=4c5fb7b6a871a2a00b1cc731&output=html&source=placeapi_v2",
        "overall_rating": "4.8",
        "image_num": "1",
        "comment_num": "9",
        "shop_hours": "08:00-11:00,13:30-17:00",
        "label": "景区,",
        "children": [],
        "parent_id": "fabcf37b214dde02f603b8bf"
      }
    },
    {
      "name": "舟山博物馆",
      "location": {
        "lat": 29.988599,
        "lng": 122.21064
      },
      "address": "舟山市定海区海天大道610号",
      "province": "浙江省",
      "city": "舟山市",
      "area": "定海区",
      "street_id": "",
      "telephone": "(0580)8230561",
      "detail": 1,
      "uid": "185dea18285e8e5800ec01af",
      "detail_info": {
        "classified_poi_tag": "旅游景点;博物馆",
        "tag": "旅游景点;博物馆",
        "navi_location": {
          "lng": 122.20917117137,
          "lat": 29.988488626227
        },
        "type": "scope",
        "detail_url": "http://api.map.baidu.com/place/detail?uid=185dea18285e8e5800ec01af&output=html&source=placeapi_v2",
        "overall_rating": "4.5",
        "comment_num": "13",
        "shop_hours": "09:00-16:00",
        "label": "景区,博物馆",
        "children": []
      }
    },
    {
      "name": "双合石壁",
      "location": {
        "lat": 30.300199,
        "lng": 122.070844
      },
      "address": "舟山市岱山县岱西镇小岙村156号",
      "province": "浙江省",
      "city": "舟山市",
      "area": "岱山县",
      "street_id": "1cea15a991e5c2c607fef5e9",
      "telephone": "13857216948",
      "detail": 1,
      "uid": "1cea15a991e5c2c607fef5e9",
      "detail_info": {
        "classified_poi_tag": "旅游景点;自然景观;风景区",
        "new_alias": "石壁景区;双合石壁景区",
        "tag": "旅游景点;风景区",
        "navi_location": {
          "lng": 122.06969861312,
          "lat": 30.298638392369
        },
        "type": "scope",
        "detail_url": "http://api.map.baidu.com/place/detail?uid=1cea15a991e5c2c607fef5e9&output=html&source=placeapi_v2",
        "overall_rating": "4.2",
        "comment_num": "12",
        "shop_hours": "08:30-17:30",
        "label": "景区,洞穴",
        "children": []
      }
    },
    {
      "name": "鹿栏晴沙",
      "location": {
        "lat": 30.317685,
        "lng": 122.232135
      },
      "address": "浙江省舟山市岱山县岱东镇中兴东路11号",
      "province": "浙江省",
      "city": "舟山市",
      "area": "岱山县",
      "street_id": "b703e96bf9d57cf98f1a89e9",
      "telephone": "(0580)7678376",
      "detail": 1,
      "uid": "b703e96bf9d57cf98f1a89e9",
      "detail_info": {
        "classified_poi_tag": "旅游景点;海滨浴场",
        "new_alias": "鹿栏晴沙景区",
        "tag": "旅游景点;海滨浴场",
        "navi_location": {
          "lng": 122.22580426359,
          "lat": 30.324164380362
        },
        "type": "scope",
        "detail_url": "http://api.map.baidu.com/place/detail?uid=b703e96bf9d57cf98f1a89e9&output=html&source=placeapi_v2",
        "overall_rating": "3.9",
        "comment_num": "30",
        "shop_hours": "08:30-17:30",
        "label": "景区,海滨/沙滩",
        "children": [],
        "parent_id": "55aad57131dac08f08f5eb33"
      }
    },
    {
      "name": "花鸟岛",
      "location": {
        "lat": 30.853778,
        "lng": 122.692004
      },
      "address": "浙江省舟山市嵊泗县花鸟乡",
      "province": "浙江省",
      "city": "舟山市",
      "area": "嵊泗县",
      "telephone": "(0580)5596999",
      "detail": 1,
      "uid": "90e85b0f6c32c1794afd3f0d",
      "detail_info": {
        "classified_poi_tag": "旅游景点;4A景区",
        "tag": "旅游景点;风景区",
        "navi_location": {
          "lng": 122.69279343233,
          "lat": 30.854884836724
        },
        "type": "scope",
        "detail_url": "http://api.map.baidu.com/place/detail?uid=90e85b0f6c32c1794afd3f0d&output=html&source=placeapi_v2",
        "overall_rating": "4.4",
        "comment_num": "11",
        "shop_hours": "00:00-24:00",
        "label": "景区,岛屿/半岛  ",
        "children": []
      }
    },
    {
      "name": "东海五渔村",
      "location": {
        "lat": 30.714959,
        "lng": 122.518923
      },
      "address": "浙江省舟山市嵊泗县胜利路",
      "province": "浙江省",
      "city": "舟山市",
      "area": "嵊泗县",
      "street_id": "1fbb37902665d6650d3ddac1",
      "telephone": "18205806740",
      "detail": 1,
      "uid": "1fbb37902665d6650d3ddac1",
      "detail_info": {
        "classified_poi_tag": "旅游景点",
        "tag": "旅游景点",
        "navi_location": {
          "lng": 122.50975754385,
          "lat": 30.711864722831
        },
        "type": "scope",
        "detail_url": "http://api.map.baidu.com/place/detail?uid=1fbb37902665d6650d3ddac1&output=html&source=placeapi_v2",
        "overall_rating": "4.3",
        "image_num": "16",
        "comment_num": "12",
        "shop_hours": "00:00-24:00",
        "label": "景区,农家乐 海边",
        "children": []
      }
    },
    {
      "name": "东沙湾海滨浴场",
      "location": {
        "lat": 29.888529,
        "lng": 122.423915
      },
      "address": "浙江省舟山市普陀区朱家尖东沙村",
      "province": "浙江省",
      "city": "舟山市",
      "area": "普陀区",
      "street_id": "",
      "telephone": "(0580)6038237",
      "detail": 1,
      "uid": "606ab0d0da18fc290e3ddaf4",
      "detail_info": {
        "classified_poi_tag": "旅游景点;海滨浴场",
        "new_alias": "东沙海滩",
        "tag": "旅游景点;海滨浴场",
        "navi_location": {
          "lng": 122.41797325868,
          "lat": 29.890598723386
        },
        "type": "scope",
        "detail_url": "http://api.map.baidu.com/place/detail?uid=606ab0d0da18fc290e3ddaf4&output=html&source=placeapi_v2",
        "overall_rating": "4",
        "comment_num": "67",
        "shop_hours": "04:30-20:00",
        "label": "景区,",
        "children": [],
        "parent_id": "97eb88c3414c34f18a36ee31"
      }
    },
    {
      "name": "紫竹林",
      "location": {
        "lat": 29.983825,
        "lng": 122.400226
      },
      "address": "浙江省舟山市普陀山东南部梅檀岭下普陀山风景名胜区内",
      "province": "浙江省",
      "city": "舟山市",
      "area": "普陀区",
      "street_id": "",
      "telephone": "(0580)3191919",
      "detail": 1,
      "uid": "cb4fd146292a773c9d9d6839",
      "detail_info": {
        "classified_poi_tag": "旅游景点;自然景观;风景区",
        "new_alias": "普陀山风景名胜区-紫竹林;普陀山风景名胜区-紫竹林景区",
        "tag": "旅游景点;风景区",
        "navi_location": {
          "lng": 122.39877918919,
          "lat": 29.983624932096
        },
        "type": "scope",
        "detail_url": "http://api.map.baidu.com/place/detail?uid=cb4fd146292a773c9d9d6839&output=html&source=placeapi_v2",
        "overall_rating": "4.7",
        "comment_num": "122",
        "shop_hours": "06:00-18:00",
        "label": "景区,寺庙 宗教场所",
        "children": [],
        "parent_id": "a5097bfa3e2a5362f03cbace"
      }
    },
    {
      "name": "定海公园",
      "location": {
        "lat": 30.018042,
        "lng": 122.113612
      },
      "address": "浙江省舟山市定海区人民南路36号",
      "province": "浙江省",
      "city": "舟山市",
      "area": "定海区",
      "street_id": "",
      "telephone": "(0580)2027192",
      "detail": 1,
      "uid": "66c2305b3b44ab8e250bd05b",
      "detail_info": {
        "classified_poi_tag": "旅游景点;公园",
        "tag": "旅游景点;公园",
        "navi_location": {
          "lng": 122.11304278179,
          "lat": 30.018338514706
        },
        "type": "scope",
        "detail_url": "http://api.map.baidu.com/place/detail?uid=66c2305b3b44ab8e250bd05b&output=html&source=placeapi_v2",
        "overall_rating": "5.0",
        "comment_num": "3",
        "shop_hours": "00:00-24:00",
        "label": "景区,",
        "children": []
      }
    },
    {
      "name": "佛顶山",
      "location": {
        "lat": 30.01606,
        "lng": 122.396667
      },
      "address": "浙江省舟山市普陀区普陀山国家级风景名胜区内",
      "province": "浙江省",
      "city": "舟山市",
      "area": "普陀区",
      "detail": 1,
      "uid": "c21db9e5b155988000ff2df1",
      "detail_info": {
        "classified_poi_tag": "旅游景点",
        "tag": "旅游景点",
        "navi_location": {
          "lng": 122.39418859606,
          "lat": 30.014927314853
        },
        "type": "scope",
        "detail_url": "http://api.map.baidu.com/place/detail?uid=c21db9e5b155988000ff2df1&output=html&source=placeapi_v2",
        "overall_rating": "4.7",
        "image_num": "1",
        "comment_num": "23",
        "shop_hours": "06:00-17:30",
        "label": "景区,山峰",
        "children": [],
        "parent_id": "a5097bfa3e2a5362f03cbace"
      }
    },
    {
      "name": "舟山儿童公园",
      "location": {
        "lat": 30.008913,
        "lng": 122.224157
      },
      "address": "新城大道与怡岛路交叉口",
      "province": "浙江省",
      "city": "舟山市",
      "area": "定海区",
      "street_id": "e52b9fd3a8c564d103ec0108",
      "telephone": "(0580)2885656",
      "detail": 1,
      "uid": "e52b9fd3a8c564d103ec0108",
      "detail_info": {
        "classified_poi_tag": "旅游景点;游乐园",
        "new_alias": "舟山儿童乐园",
        "tag": "旅游景点;游乐园",
        "navi_location": {
          "lng": 122.22607156262,
          "lat": 30.008022885044
        },
        "type": "scope",
        "detail_url": "http://api.map.baidu.com/place/detail?uid=e52b9fd3a8c564d103ec0108&output=html&source=placeapi_v2",
        "overall_rating": "5.0",
        "comment_num": "17",
        "shop_hours": "08:30-19:00",
        "label": "景区,",
        "children": []
      }
    },
    {
      "name": "普陀山佛顶山索道",
      "location": {
        "lat": 30.024818,
        "lng": 122.404079
      },
      "address": "舟山市普陀区海天路251号",
      "province": "浙江省",
      "city": "舟山市",
      "area": "普陀区",
      "telephone": "(0580)3191919",
      "detail": 1,
      "uid": "d3c1ec34a6a762fdb35c6a84",
      "detail_info": {
        "classified_poi_tag": "旅游景点",
        "new_alias": "普陀山索道",
        "tag": "旅游景点",
        "navi_location": {
          "lng": 122.39851618286,
          "lat": 30.015089540839
        },
        "type": "scope",
        "detail_url": "http://api.map.baidu.com/place/detail?uid=d3c1ec34a6a762fdb35c6a84&output=html&source=placeapi_v2",
        "overall_rating": "4.1",
        "image_num": "4",
        "comment_num": "1",
        "shop_hours": "07:00-16:45",
        "label": "景区,",
        "children": [],
        "parent_id": "c21db9e5b155988000ff2df1"
      }
    },
    {
      "name": "情人岛",
      "location": {
        "lat": 29.879717,
        "lng": 122.42865
      },
      "address": "浙江省舟山市普陀区朱家尖南沙",
      "province": "浙江省",
      "city": "舟山市",
      "area": "普陀区",
      "street_id": "",
      "telephone": "(0580)6631009",
      "detail": 1,
      "uid": "f60a15edc424b7efbb17e7f4",
      "detail_info": {
        "classified_poi_tag": "旅游景点;自然景观;风景区",
        "tag": "旅游景点;风景区",
        "navi_location": {
          "lng": 122.42126589789,
          "lat": 29.885119651418
        },
        "type": "scope",
        "detail_url": "http://api.map.baidu.com/place/detail?uid=f60a15edc424b7efbb17e7f4&output=html&source=placeapi_v2",
        "overall_rating": "4.0",
        "comment_num": "29",
        "shop_hours": "07:00-17:00",
        "label": "景区,海边",
        "children": [],
        "parent_id": "97eb88c3414c34f18a36ee31"
      }
    },
    {
      "name": "秀山岛",
      "location": {
        "lat": 30.157418,
        "lng": 122.16919
      },
      "address": "浙江省舟山市岱山县舟山岛近岱山岛(近岱山岛)",
      "province": "浙江省",
      "city": "舟山市",
      "area": "岱山县",
      "street_id": "78e266d3f4c54a716c47603e",
      "detail": 1,
      "uid": "78e266d3f4c54a716c47603e",
      "detail_info": {
        "classified_poi_tag": "旅游景点;自然景观;风景区",
        "new_alias": "秀山岛景区",
        "tag": "旅游景点;风景区",
        "navi_location": {
          "lng": 122.1708712807,
          "lat": 30.158425540472
        },
        "type": "scope",
        "detail_url": "http://api.map.baidu.com/place/detail?uid=78e266d3f4c54a716c47603e&output=html&source=placeapi_v2",
        "overall_rating": "4.4",
        "comment_num": "22",
        "shop_hours": "09:00-17:30",
        "label": "景区,",
        "children": [],
        "parent_id": "5c041aeb04cacfba5a109371"
      }
    },
    {
      "name": "中国灯塔博物馆",
      "location": {
        "lat": 30.255995,
        "lng": 122.23286
      },
      "address": "舟山市岱山县长剑大道201号",
      "province": "浙江省",
      "city": "舟山市",
      "area": "岱山县",
      "street_id": "beabdbf455018d9b7069d3f3",
      "telephone": "(0580)4962877",
      "detail": 1,
      "uid": "beabdbf455018d9b7069d3f3",
      "detail_info": {
        "classified_poi_tag": "旅游景点;博物馆",
        "tag": "旅游景点;博物馆",
        "navi_location": {
          "lng": 122.23327421379,
          "lat": 30.255942038933
        },
        "type": "scope",
        "detail_url": "http://api.map.baidu.com/place/detail?uid=beabdbf455018d9b7069d3f3&output=html&source=placeapi_v2",
        "overall_rating": "4.6",
        "comment_num": "10",
        "shop_hours": "08:30-12:00,14:00-17:30",
        "label": "景区,博物馆",
        "children": []
      }
    },
    {
      "name": "善财洞",
      "location": {
        "lat": 30.009614,
        "lng": 122.419012
      },
      "address": "浙江省舟山市普陀区普陀山风景名胜区善财路29号",
      "province": "浙江省",
      "city": "舟山市",
      "area": "普陀区",
      "telephone": "(0580)6690329",
      "detail": 1,
      "uid": "7075a74b7fb5bf4479b55cea",
      "detail_info": {
        "classified_poi_tag": "旅游景点",
        "new_alias": "善财古洞",
        "tag": "旅游景点",
        "type": "scope",
        "detail_url": "http://api.map.baidu.com/place/detail?uid=7075a74b7fb5bf4479b55cea&output=html&source=placeapi_v2",
        "overall_rating": "4.5",
        "comment_num": "14",
        "shop_hours": "06:00-17:30",
        "label": "景区,洞穴",
        "children": [],
        "parent_id": "a5097bfa3e2a5362f03cbace"
      }
    },
    {
      "name": "东海云廊绿道(东山段)",
      "location": {
        "lat": 30.008335,
        "lng": 122.130856
      },
      "address": "东山公园",
      "province": "浙江省",
      "city": "舟山市",
      "area": "定海区",
      "detail": 1,
      "uid": "ec85cfe0d6da024bd8d891c6",
      "detail_info": {
        "classified_poi_tag": "旅游景点",
        "tag": "旅游景点",
        "navi_location": {
          "lng": 122.1297047985,
          "lat": 30.009124865155
        },
        "type": "scope",
        "detail_url": "http://api.map.baidu.com/place/detail?uid=ec85cfe0d6da024bd8d891c6&output=html&source=placeapi_v2",
        "comment_num": "5",
        "shop_hours": "",
        "label": "",
        "children": [],
        "parent_id": "df29b19ee8f7a0db9d9d68b9"
      }
    },
    {
      "name": "舟山册子岛月亮湾",
      "location": {
        "lat": 30.073836,
        "lng": 121.939105
      },
      "address": "册子乡岑港街道门大线门头山",
      "province": "浙江省",
      "city": "舟山市",
      "area": "定海区",
      "street_id": "",
      "telephone": "(0580)8770777",
      "detail": 1,
      "uid": "26a2e65e6c2eb5f97bf796e9",
      "detail_info": {
        "classified_poi_tag": "旅游景点;人文景观;文物古迹",
        "new_alias": "西堠门大桥风景区;舟山册子月亮湾",
        "tag": "旅游景点;文物古迹",
        "navi_location": {
          "lng": 121.94185966096,
          "lat": 30.073769519717
        },
        "type": "scope",
        "detail_url": "http://api.map.baidu.com/place/detail?uid=26a2e65e6c2eb5f97bf796e9&output=html&source=placeapi_v2",
        "overall_rating": "4.5",
        "comment_num": "6",
        "shop_hours": "08:00-16:00",
        "label": "景区,度假村",
        "children": []
      }
    },
    {
      "name": "揽月湖",
      "location": {
        "lat": 29.967096,
        "lng": 122.20184
      },
      "address": "舟山市定海区海大南路浙江海洋大学国际学术交流中心东南侧约270米",
      "province": "浙江省",
      "city": "舟山市",
      "area": "定海区",
      "street_id": "8a786e661850246242d63ec1",
      "detail": 1,
      "uid": "8a786e661850246242d63ec1",
      "detail_info": {
        "classified_poi_tag": "旅游景点",
        "tag": "旅游景点",
        "navi_location": {
          "lng": 122.20166176228,
          "lat": 29.966677980299
        },
        "type": "scope",
        "detail_url": "http://api.map.baidu.com/place/detail?uid=8a786e661850246242d63ec1&output=html&source=placeapi_v2",
        "overall_rating": "5.0",
        "image_num": "1",
        "comment_num": "2",
        "shop_hours": "00:00-24:00",
        "label": "景区,",
        "children": []
      }
    },
    {
      "name": "大洋山",
      "location": {
        "lat": 30.594221,
        "lng": 122.080508
      },
      "address": "浙江省舟山市嵊泗县",
      "province": "浙江省",
      "city": "舟山市",
      "area": "嵊泗县",
      "detail": 1,
      "uid": "dfc496b6d25a2fac8936eef2",
      "detail_info": {
        "classified_poi_tag": "旅游景点",
        "new_alias": "Dayang",
        "tag": "旅游景点",
        "navi_location": {
          "lng": 122.08154481617,
          "lat": 30.594288735233
        },
        "type": "scope",
        "detail_url": "http://api.map.baidu.com/place/detail?uid=dfc496b6d25a2fac8936eef2&output=html&source=placeapi_v2",
        "overall_rating": "4.7",
        "image_num": "1",
        "comment_num": "4",
        "shop_hours": "08:00-17:00",
        "label": "景区,山岳/山岭",
        "children": []
      }
    },
    {
      "name": "基湖沙滩景区",
      "location": {
        "lat": 30.719379,
        "lng": 122.480495
      },
      "address": "浙江省舟山市嵊泗县菜园镇基湖村金沙路49号",
      "province": "浙江省",
      "city": "舟山市",
      "area": "嵊泗县",
      "street_id": "",
      "telephone": "(0580)5766911",
      "detail": 1,
      "uid": "837b7138a88cbe10ad045795",
      "detail_info": {
        "classified_poi_tag": "旅游景点;海滨浴场",
        "new_alias": "舟山嵊泗列岛风景名胜区-基湖沙滩;舟山嵊泗列岛风景名胜区-基湖沙滩景区;嵊泗基湖沙滩",
        "tag": "旅游景点;海滨浴场",
        "navi_location": {
          "lng": 122.47545833552,
          "lat": 30.71897004906
        },
        "type": "scope",
        "detail_url": "http://api.map.baidu.com/place/detail?uid=837b7138a88cbe10ad045795&output=html&source=placeapi_v2",
        "overall_rating": "4.2",
        "comment_num": "50",
        "shop_hours": "08:00-20:00",
        "label": "景区,海边 海滨/沙滩",
        "children": [],
        "parent_id": "c2fd07fb607ee01f6cc02ca7"
      }
    },
    {
      "name": "海滨公园",
      "location": {
        "lat": 30.010197,
        "lng": 122.117482
      },
      "address": "浙江省舟山市定海区和平路与沿港东路交叉口南100米",
      "province": "浙江省",
      "city": "舟山市",
      "area": "定海区",
      "street_id": "",
      "detail": 1,
      "uid": "6a099061c9aa82e5ae080f50",
      "detail_info": {
        "classified_poi_tag": "旅游景点;公园",
        "new_alias": "定海公园-海滨公园(人民南路);海滨公园(沿港东路)",
        "tag": "旅游景点;公园",
        "navi_location": {
          "lng": 122.11504345741,
          "lat": 30.011792800127
        },
        "type": "scope",
        "detail_url": "http://api.map.baidu.com/place/detail?uid=6a099061c9aa82e5ae080f50&output=html&source=placeapi_v2",
        "overall_rating": "3.5",
        "comment_num": "11",
        "shop_hours": "00:00-24:00",
        "label": "景区,",
        "children": []
      }
    },
    {
      "name": "青龙山公园",
      "location": {
        "lat": 29.958282,
        "lng": 122.31561
      },
      "address": "东海东路7号",
      "province": "浙江省",
      "city": "舟山市",
      "area": "普陀区",
      "street_id": "",
      "detail": 1,
      "uid": "d1469ee7f6938561843304f7",
      "detail_info": {
        "classified_poi_tag": "旅游景点;公园",
        "tag": "旅游景点;公园",
        "navi_location": {
          "lng": 122.31785044296,
          "lat": 29.956089287219
        },
        "type": "scope",
        "detail_url": "http://api.map.baidu.com/place/detail?uid=d1469ee7f6938561843304f7&output=html&source=placeapi_v2",
        "overall_rating": "4.6",
        "comment_num": "6",
        "shop_hours": "00:00-24:00",
        "label": "景区,公园",
        "children": []
      }
    },
    {
      "name": "翁浦公园",
      "location": {
        "lat": 29.990723,
        "lng": 122.206457
      },
      "address": "舟山市定海区海天大道与千岛路交叉路口往西约240米",
      "province": "浙江省",
      "city": "舟山市",
      "area": "定海区",
      "street_id": "",
      "detail": 1,
      "uid": "bcae8e54c3566786d618b737",
      "detail_info": {
        "classified_poi_tag": "旅游景点;公园",
        "tag": "旅游景点;公园",
        "navi_location": {
          "lng": 122.20470001433,
          "lat": 29.988232576404
        },
        "type": "scope",
        "detail_url": "http://api.map.baidu.com/place/detail?uid=bcae8e54c3566786d618b737&output=html&source=placeapi_v2",
        "overall_rating": "5.0",
        "comment_num": "41",
        "shop_hours": "00:00-24:00",
        "label": "景区,",
        "children": []
      }
    },
    {
      "name": "嵊山枸杞景区",
      "location": {
        "lat": 30.719754,
        "lng": 122.779776
      },
      "address": "浙江省舟山市嵊泗县枸杞乡",
      "province": "浙江省",
      "city": "舟山市",
      "area": "嵊泗县",
      "detail": 1,
      "uid": "cb358b8b5068d4aa2902e193",
      "detail_info": {
        "classified_poi_tag": "旅游景点;自然景观;风景区",
        "tag": "旅游景点;风景区",
        "type": "scope",
        "detail_url": "http://api.map.baidu.com/place/detail?uid=cb358b8b5068d4aa2902e193&output=html&source=placeapi_v2",
        "overall_rating": "4.5",
        "comment_num": "45",
        "shop_hours": "00:00-24:00",
        "label": "景区,山岳/山岭",
        "children": []
      }
    },
    {
      "name": "东海大峡谷",
      "location": {
        "lat": 30.091287,
        "lng": 122.057808
      },
      "address": "浙江省舟山市定海区双桥街道紫薇社区狭门五区179号",
      "province": "浙江省",
      "city": "舟山市",
      "area": "定海区",
      "telephone": "(0580)2978855",
      "detail": 1,
      "uid": "b9b3367b372b0398f4b91670",
      "detail_info": {
        "classified_poi_tag": "旅游景点;自然景观;风景区",
        "tag": "旅游景点;风景区",
        "navi_location": {
          "lng": 122.05781761277,
          "lat": 30.091339302401
        },
        "type": "scope",
        "detail_url": "http://api.map.baidu.com/place/detail?uid=b9b3367b372b0398f4b91670&output=html&source=placeapi_v2",
        "overall_rating": "4.0",
        "shop_hours": "08:30-16:30",
        "label": "景区,",
        "children": []
      }
    },
    {
      "name": "风电观光平台",
      "location": {
        "lat": 30.455776,
        "lng": 122.40877
      },
      "address": "舟山市岱山县",
      "province": "浙江省",
      "city": "舟山市",
      "area": "岱山县",
      "detail": 1,
      "uid": "19ee0b39701edc3f3617dc9f",
      "detail_info": {
        "classified_poi_tag": "旅游景点",
        "new_alias": "大巨风车平台;风车观望平台",
        "tag": "旅游景点",
        "navi_location": {
          "lng": 122.40896808784,
          "lat": 30.455640984269
        },
        "type": "scope",
        "detail_url": "http://api.map.baidu.com/place/detail?uid=19ee0b39701edc3f3617dc9f&output=html&source=placeapi_v2",
        "overall_rating": "4.5",
        "comment_num": "12",
        "shop_hours": "00:00-24:00",
        "label": "景区,",
        "children": []
      }
    },
    {
      "name": "东极岛观日台",
      "location": {
        "lat": 30.134031,
        "lng": 122.793292
      },
      "address": "浙江省舟山市普陀区东极岛景区-东福山岛",
      "province": "",
      "city": "",
      "area": "",
      "detail": 1,
      "uid": "c9046ca12463e8a84302458b",
      "detail_info": {
        "classified_poi_tag": "旅游景点",
        "new_alias": "第一缕曙光照射点",
        "tag": "旅游景点",
        "type": "scope",
        "detail_url": "http://api.map.baidu.com/place/detail?uid=c9046ca12463e8a84302458b&output=html&source=placeapi_v2",
        "overall_rating": "5",
        "comment_num": "6",
        "shop_hours": "00:00-24:00",
        "label": "景区,",
        "children": [],
        "parent_id": "a74481d61d983b5ff503b86b"
      }
    },
    {
      "name": "磐陀石",
      "location": {
        "lat": 29.989418,
        "lng": 122.383216
      },
      "address": "舟山市普陀区梅岑路115号普陀山",
      "province": "浙江省",
      "city": "舟山市",
      "area": "普陀区",
      "telephone": "(0580)3191919",
      "detail": 1,
      "uid": "64e969e758b5262cc8213d67",
      "detail_info": {
        "classified_poi_tag": "旅游景点",
        "tag": "旅游景点",
        "navi_location": {
          "lng": 122.38098878755,
          "lat": 29.987276233084
        },
        "type": "scope",
        "detail_url": "http://api.map.baidu.com/place/detail?uid=64e969e758b5262cc8213d67&output=html&source=placeapi_v2",
        "overall_rating": "4.6",
        "comment_num": "13",
        "shop_hours": "00:00-24:00",
        "label": " 景区,名胜古迹",
        "children": [],
        "parent_id": "9041c5da9bd1db272efaa7ce"
      }
    },
    {
      "name": "中国海岬公园",
      "location": {
        "lat": 30.333222,
        "lng": 122.199314
      },
      "address": "浙江省舟山市岱山县黄燕线",
      "province": "浙江省",
      "city": "舟山市",
      "area": "岱山县",
      "detail": 1,
      "uid": "9490ee2a97bfbed69703197e",
      "detail_info": {
        "classified_poi_tag": "旅游景点;公园",
        "tag": "旅游景点;公园",
        "navi_location": {
          "lng": 122.19829701701,
          "lat": 30.333007292665
        },
        "type": "scope",
        "detail_url": "http://api.map.baidu.com/place/detail?uid=9490ee2a97bfbed69703197e&output=html&source=placeapi_v2",
        "overall_rating": "3.7",
        "comment_num": "27",
        "shop_hours": "00:00-24:00",
        "label": "景区,",
        "children": [],
        "parent_id": "16977ee3139452f49f82eaf9"
      }
    },
    {
      "name": "双泉禅院",
      "location": {
        "lat": 30.004427,
        "lng": 122.397592
      },
      "address": "舟山市普陀区法雨路97号(锦屏山庄)",
      "province": "浙江省",
      "city": "舟山市",
      "area": "普陀区",
      "detail": 1,
      "uid": "09185c560e74c220f1193739",
      "detail_info": {
        "classified_poi_tag": "旅游景点",
        "new_alias": "普陀山风景名胜区-双泉禅院",
        "tag": "旅游景点",
        "navi_location": {
          "lng": 122.39806658095,
          "lat": 30.004463446217
        },
        "type": "scope",
        "detail_url": "http://api.map.baidu.com/place/detail?uid=09185c560e74c220f1193739&output=html&source=placeapi_v2",
        "overall_rating": "4.7",
        "comment_num": "6",
        "shop_hours": "",
        "label": "景区,寺庙",
        "children": [],
        "parent_id": "a5097bfa3e2a5362f03cbace"
      }
    },
    {
      "name": "天华庵百子堂",
      "location": {
        "lat": 29.989718,
        "lng": 122.394996
      },
      "address": "舟山市普陀区普济路251号",
      "province": "浙江省",
      "city": "舟山市",
      "area": "普陀区",
      "telephone": "(0580)3191919",
      "detail": 1,
      "uid": "4af7a43407bb6c61a8059dc0",
      "detail_info": {
        "classified_poi_tag": "旅游景点;寺庙",
        "tag": "旅游景点;寺庙",
        "type": "scope",
        "detail_url": "http://api.map.baidu.com/place/detail?uid=4af7a43407bb6c61a8059dc0&output=html&source=placeapi_v2",
        "overall_rating": "4.9",
        "image_num": "3",
        "comment_num": "3",
        "shop_hours": "06:30-21:50",
        "label": "景区,",
        "children": [],
        "parent_id": "a5097bfa3e2a5362f03cbace"
      }
    },
    {
      "name": "黄沙秘境",
      "location": {
        "lat": 30.010127,
        "lng": 122.04031
      },
      "address": "舟山市定海区鸭东线与临欣路交叉路口西侧",
      "province": "浙江省",
      "city": "舟山市",
      "area": "定海区",
      "street_id": "34d58eb926e3a7d9d22dd6d4",
      "detail": 1,
      "uid": "34d58eb926e3a7d9d22dd6d4",
      "detail_info": {
        "classified_poi_tag": "旅游景点",
        "tag": "旅游景点",
        "navi_location": {
          "lng": 122.04035124597,
          "lat": 30.010064008254
        },
        "type": "scope",
        "detail_url": "http://api.map.baidu.com/place/detail?uid=34d58eb926e3a7d9d22dd6d4&output=html&source=placeapi_v2",
        "overall_rating": "5.0",
        "comment_num": "2",
        "shop_hours": "",
        "label": "景区,",
        "children": []
      }
    },
    {
      "name": "浦西公园",
      "location": {
        "lat": 29.97587,
        "lng": 122.252662
      },
      "address": "浙江省舟山市普陀区东海西路2047号",
      "province": "浙江省",
      "city": "舟山市",
      "area": "普陀区",
      "street_id": "",
      "detail": 1,
      "uid": "2f49c30a2d89418e901fc951",
      "detail_info": {
        "classified_poi_tag": "旅游景点;公园",
        "tag": "旅游景点;公园",
        "navi_location": {
          "lng": 122.25313335243,
          "lat": 29.974913946554
        },
        "type": "scope",
        "detail_url": "http://api.map.baidu.com/place/detail?uid=2f49c30a2d89418e901fc951&output=html&source=placeapi_v2",
        "overall_rating": "4.6",
        "comment_num": "5",
        "shop_hours": "00:00-24:00",
        "label": "景区,",
        "children": []
      }
    },
    {
      "name": "东崖绝壁",
      "location": {
        "lat": 30.707681,
        "lng": 122.842437
      },
      "address": "东崖绝壁景区小木屋",
      "province": "浙江省",
      "city": "舟山市",
      "area": "嵊泗县",
      "detail": 1,
      "uid": "c117dd71993ca55346572638",
      "detail_info": {
        "classified_poi_tag": "旅游景点",
        "tag": "旅游景点",
        "navi_location": {
          "lng": 122.84054538863,
          "lat": 30.70706590501
        },
        "type": "scope",
        "detail_url": "http://api.map.baidu.com/place/detail?uid=c117dd71993ca55346572638&output=html&source=placeapi_v2",
        "overall_rating": "4.6",
        "comment_num": "33",
        "shop_hours": "04:30-17:00",
        "label": "景区,地质地貌 山峰",
        "children": [],
        "parent_id": "cb358b8b5068d4aa2902e193"
      }
    },
    {
      "name": "杨枝禅林",
      "location": {
        "lat": 30.007325,
        "lng": 122.395622
      },
      "address": "舟山市普陀区山法雨路9号",
      "province": "浙江省",
      "city": "舟山市",
      "area": "普陀区",
      "detail": 1,
      "uid": "fd007c5e15e62e6fa8f729f1",
      "detail_info": {
        "classified_poi_tag": "旅游景点",
        "tag": "旅游景点",
        "navi_location": {
          "lng": 122.3956230103,
          "lat": 30.007323267164
        },
        "type": "scope",
        "detail_url": "http://api.map.baidu.com/place/detail?uid=fd007c5e15e62e6fa8f729f1&output=html&source=placeapi_v2",
        "overall_rating": "5",
        "comment_num": "4",
        "shop_hours": "",
        "label": "景区,",
        "children": [],
        "parent_id": "a5097bfa3e2a5362f03cbace"
      }
    },
    {
      "name": "舟山市朱家尖南沙景区沙滩",
      "location": {
        "lat": 29.883968,
        "lng": 122.413443
      },
      "address": "舟山市普陀区龙眼线朱家尖国际沙雕艺术广场",
      "province": "浙江省",
      "city": "舟山市",
      "area": "普陀区",
      "telephone": "(0580)6632545",
      "detail": 1,
      "uid": "9e2b7604bd2a1dae213bf254",
      "detail_info": {
        "classified_poi_tag": "旅游景点;海滨浴场",
        "tag": "旅游景点;海滨浴场",
        "navi_location": {
          "lng": 122.4133936221,
          "lat": 29.883913634068
        },
        "type": "scope",
        "detail_url": "http://api.map.baidu.com/place/detail?uid=9e2b7604bd2a1dae213bf254&output=html&source=placeapi_v2",
        "comment_num": "3",
        "shop_hours": "",
        "label": "旅游景点 海滨浴场",
        "children": [],
        "parent_id": "373cf757611c256d4354d7ec"
      }
    },
    {
      "name": "中国海防博物馆",
      "location": {
        "lat": 30.332674,
        "lng": 122.23145
      },
      "address": "浙江省舟山市岱山县岱东镇黄嘴头东南面沿海地带",
      "province": "浙江省",
      "city": "舟山市",
      "area": "岱山县",
      "telephone": "(0580)7667570",
      "detail": 1,
      "uid": "a5ef680f08f6e3d4b9df8fe9",
      "detail_info": {
        "classified_poi_tag": "旅游景点;博物馆",
        "tag": "旅游景点;博物馆",
        "navi_location": {
          "lng": 122.23143294823,
          "lat": 30.332772288754
        },
        "type": "scope",
        "detail_url": "http://api.map.baidu.com/place/detail?uid=a5ef680f08f6e3d4b9df8fe9&output=html&source=placeapi_v2",
        "overall_rating": "4.0",
        "comment_num": "5",
        "shop_hours": "08:45-12:00,14:00-17:30",
        "label": "景区,",
        "children": [],
        "parent_id": "55aad57131dac08f08f5eb33"
      }
    },
    {
      "name": "普门万佛宝塔",
      "location": {
        "lat": 30.025395,
        "lng": 122.401922
      },
      "address": "浙江省舟山市普陀区香云路",
      "province": "浙江省",
      "city": "舟山市",
      "area": "普陀区",
      "telephone": "(0580)3191919",
      "detail": 1,
      "uid": "f4460918b8f46317b11e3639",
      "detail_info": {
        "classified_poi_tag": "旅游景点;人文景观;文物古迹",
        "new_alias": "普陀山风景名胜区-万佛宝塔",
        "tag": "旅游景点;文物古迹",
        "navi_location": {
          "lng": 122.40202182011,
          "lat": 30.025442131587
        },
        "type": "life",
        "detail_url": "http://api.map.baidu.com/place/detail?uid=f4460918b8f46317b11e3639&output=html&source=placeapi_v2",
        "overall_rating": "4.8",
        "image_num": "46",
        "comment_num": "28",
        "shop_hours": "06:00-18:00",
        "label": "文物古迹",
        "children": [],
        "parent_id": "a5097bfa3e2a5362f03cbace"
      }
    },
    {
      "name": "普济禅寺",
      "location": {
        "lat": 29.991604,
        "lng": 122.3933
      },
      "address": "浙江省舟山市普陀区香华街15号普陀山内",
      "province": "浙江省",
      "city": "舟山市",
      "area": "普陀区",
      "street_id": "09185c565226fe20f11937ef",
      "telephone": "(0580)6091336",
      "detail": 1,
      "uid": "09185c565226fe20f11937ef",
      "detail_info": {
        "classified_poi_tag": "旅游景点;寺庙",
        "new_alias": "普陀山风景名胜区-普济禅寺;普济寺",
        "tag": "旅游景点;寺庙",
        "navi_location": {
          "lng": 122.39112022024,
          "lat": 29.990609931988
        },
        "type": "scope",
        "detail_url": "http://api.map.baidu.com/place/detail?uid=09185c565226fe20f11937ef&output=html&source=placeapi_v2",
        "overall_rating": "4.7",
        "image_num": "64",
        "comment_num": "27",
        "shop_hours": "05:30-18:00",
        "label": " 景区,宗教场所",
        "children": [],
        "parent_id": "a5097bfa3e2a5362f03cbace"
      }
    },
    {
      "name": "普陀山风景名胜区-入三摩地",
      "location": {
        "lat": 29.982672,
        "lng": 122.391519
      },
      "address": "舟山市普陀区妙庄严路前段入口处",
      "province": "浙江省",
      "city": "舟山市",
      "area": "普陀区",
      "detail": 1,
      "uid": "967cbe4973e5907a0f0e6bfd",
      "detail_info": {
        "classified_poi_tag": "旅游景点",
        "tag": "旅游景点",
        "type": "scope",
        "detail_url": "http://api.map.baidu.com/place/detail?uid=967cbe4973e5907a0f0e6bfd&output=html&source=placeapi_v2",
        "overall_rating": "4.4",
        "comment_num": "2",
        "shop_hours": "00:00-24:00",
        "label": "景区,",
        "children": [],
        "parent_id": "a5097bfa3e2a5362f03cbace"
      }
    },
    {
      "name": "慧济禅寺",
      "location": {
        "lat": 30.017198,
        "lng": 122.39669
      },
      "address": "浙江省舟山市普陀区梅岑路1号普陀山风景名胜区内",
      "province": "浙江省",
      "city": "舟山市",
      "area": "普陀区",
      "street_id": "",
      "telephone": "(0580)6690126",
      "detail": 1,
      "uid": "0ce65c2da1f0b35a2d4733f1",
      "detail_info": {
        "classified_poi_tag": "旅游景点;寺庙",
        "new_alias": "普陀山慧济禅寺",
        "tag": "旅游景点;寺庙",
        "navi_location": {
          "lng": 122.39624419527,
          "lat": 30.017257270379
        },
        "type": "scope",
        "detail_url": "http://api.map.baidu.com/place/detail?uid=0ce65c2da1f0b35a2d4733f1&output=html&source=placeapi_v2",
        "overall_rating": "4.8",
        "comment_num": "15",
        "shop_hours": "05:20-17:30",
        "label": " 景区,宗教场所",
        "children": [],
        "parent_id": "c21db9e5b155988000ff2df1"
      }
    },
    {
      "name": "燕窝山景区",
      "location": {
        "lat": 30.354003,
        "lng": 122.184543
      },
      "address": "浙江省舟山市岱山县东沙镇泥峙燕窝山33号",
      "province": "浙江省",
      "city": "舟山市",
      "area": "岱山县",
      "detail": 1,
      "uid": "2ecbb3ac4d82cd62f33cba09",
      "detail_info": {
        "classified_poi_tag": "旅游景点;自然景观;风景区",
        "tag": "旅游景点;风景区",
        "navi_location": {
          "lng": 122.18401245068,
          "lat": 30.352944818872
        },
        "type": "scope",
        "detail_url": "http://api.map.baidu.com/place/detail?uid=2ecbb3ac4d82cd62f33cba09&output=html&source=placeapi_v2",
        "shop_hours": "00:00-24:00",
        "label": "旅游景点 自然景观 风景区",
        "children": []
      }
    },
    {
      "name": "心字石",
      "location": {
        "lat": 29.990752,
        "lng": 122.389529
      },
      "address": "舟山市普陀区梅岑路普陀山风景名胜区",
      "province": "浙江省",
      "city": "舟山市",
      "area": "普陀区",
      "detail": 1,
      "uid": "f9fd60621e5fc0620f0e6b39",
      "detail_info": {
        "classified_poi_tag": "旅游景点",
        "tag": "旅游景点",
        "navi_location": {
          "lng": 122.38810322346,
          "lat": 29.989261966321
        },
        "type": "scope",
        "detail_url": "http://api.map.baidu.com/place/detail?uid=f9fd60621e5fc0620f0e6b39&output=html&source=placeapi_v2",
        "overall_rating": "4.6",
        "comment_num": "8",
        "shop_hours": "00:00-24:00",
        "label": "景区,礁石/岩石  ",
        "children": [],
        "parent_id": "9041c5da9bd1db272efaa7ce"
      }
    },
    {
      "name": "潮音洞",
      "location": {
        "lat": 29.984495,
        "lng": 122.40095
      },
      "address": "舟山市普陀区普陀山紫竹路117号",
      "province": "浙江省",
      "city": "舟山市",
      "area": "普陀区",
      "telephone": "(0580)3191919,(0580)6877783",
      "detail": 1,
      "uid": "9f97b1c5d04a027bb64f5439",
      "detail_info": {
        "classified_poi_tag": "旅游景点",
        "tag": "旅游景点",
        "navi_location": {
          "lng": 122.39877918919,
          "lat": 29.983624932096
        },
        "type": "scope",
        "detail_url": "http://api.map.baidu.com/place/detail?uid=9f97b1c5d04a027bb64f5439&output=html&source=placeapi_v2",
        "overall_rating": "4.5",
        "comment_num": "4",
        "shop_hours": "00:00-24:00",
        "label": " 景区,洞穴 宗教场所",
        "children": [],
        "parent_id": "cb4fd146292a773c9d9d6839"
      }
    },
    {
      "name": "六合朝阳景区-和尚套",
      "location": {
        "lat": 30.70836,
        "lng": 122.54051
      },
      "address": "浙江省舟山市嵊泗县边礁村朝阳南路59号",
      "province": "浙江省",
      "city": "舟山市",
      "area": "嵊泗县",
      "telephone": "(0580)5592620",
      "detail": 1,
      "uid": "be520063a568b74c08ccddf2",
      "detail_info": {
        "classified_poi_tag": "旅游景点;自然景观;风景区",
        "tag": "旅游景点;风景区",
        "navi_location": {
          "lng": 122.53884274001,
          "lat": 30.70794032929
        },
        "type": "scope",
        "detail_url": "http://api.map.baidu.com/place/detail?uid=be520063a568b74c08ccddf2&output=html&source=placeapi_v2",
        "overall_rating": "4.5",
        "comment_num": "10",
        "shop_hours": "08:00-17:00",
        "label": "景区,",
        "children": [],
        "parent_id": "44f4751b4f73ee98b5147f84"
      }
    },
    {
      "name": "大乘禅院",
      "location": {
        "lat": 30.000134,
        "lng": 122.396535
      },
      "address": "舟山市普陀区法雨路39号",
      "province": "浙江省",
      "city": "舟山市",
      "area": "普陀区",
      "telephone": "(0580)6690347",
      "detail": 1,
      "uid": "480b24d082aade8c9cec2b39",
      "detail_info": {
        "classified_poi_tag": "旅游景点;寺庙",
        "new_alias": "大乘庵",
        "tag": "旅游景点;寺庙",
        "navi_location": {
          "lng": 122.39723239693,
          "lat": 29.999706328312
        },
        "type": "scope",
        "detail_url": "http://api.map.baidu.com/place/detail?uid=480b24d082aade8c9cec2b39&output=html&source=placeapi_v2",
        "overall_rating": "4.8",
        "comment_num": "37",
        "shop_hours": "06:00-18:00",
        "label": "景区,",
        "children": [],
        "parent_id": "a5097bfa3e2a5362f03cbace"
      }
    },
    {
      "name": "山海奇观",
      "location": {
        "lat": 30.711195,
        "lng": 122.787916
      },
      "address": "舟山市嵊泗县嵊山枸杞景区内",
      "province": "浙江省",
      "city": "舟山市",
      "area": "嵊泗县",
      "detail": 1,
      "uid": "0523a1413b45851eb23c81ed",
      "detail_info": {
        "classified_poi_tag": "旅游景点",
        "tag": "旅游景点",
        "type": "scope",
        "detail_url": "http://api.map.baidu.com/place/detail?uid=0523a1413b45851eb23c81ed&output=html&source=placeapi_v2",
        "overall_rating": "4.2",
        "comment_num": "14",
        "shop_hours": "00:00-24:00",
        "label": "景区,",
        "children": [],
        "parent_id": "cb358b8b5068d4aa2902e193"
      }
    },
    {
      "name": "北安公园",
      "location": {
        "lat": 29.954731,
        "lng": 122.309164
      },
      "address": "浙江省舟山市普陀区沈家门新街195号以北附近",
      "province": "浙江省",
      "city": "舟山市",
      "area": "普陀区",
      "street_id": "",
      "detail": 1,
      "uid": "de4b27e53063370f9cec2b7e",
      "detail_info": {
        "classified_poi_tag": "旅游景点;公园",
        "tag": "旅游景点;公园",
        "navi_location": {
          "lng": 122.3095889971,
          "lat": 29.954637073111
        },
        "type": "scope",
        "detail_url": "http://api.map.baidu.com/place/detail?uid=de4b27e53063370f9cec2b7e&output=html&source=placeapi_v2",
        "overall_rating": "0",
        "comment_num": "2",
        "shop_hours": "00:00-24:00",
        "label": "景区,",
        "children": []
      }
    },
    {
      "name": "大悲山",
      "location": {
        "lat": 30.711678,
        "lng": 122.500714
      },
      "address": "舟山市嵊泗县五龙乡田岙村高大线",
      "province": "浙江省",
      "city": "舟山市",
      "area": "嵊泗县",
      "street_id": "",
      "detail": 1,
      "uid": "205ca63cf5ceccaeea12e44b",
      "detail_info": {
        "classified_poi_tag": "旅游景点;寺庙",
        "new_alias": "舟山嵊泗列岛风景名胜区-大悲山景区",
        "tag": "旅游景点;寺庙",
        "navi_location": {
          "lng": 122.50764566533,
          "lat": 30.713059293167
        },
        "type": "scope",
        "detail_url": "http://api.map.baidu.com/place/detail?uid=205ca63cf5ceccaeea12e44b&output=html&source=placeapi_v2",
        "overall_rating": "4.2",
        "comment_num": "11",
        "shop_hours": "07:30-17:30",
        "label": "景区,旅游景点",
        "children": [],
        "parent_id": "c2fd07fb607ee01f6cc02ca7"
      }
    },
    {
      "name": "高云禅寺",
      "location": {
        "lat": 30.021311,
        "lng": 122.192572
      },
      "address": "浙江省舟山市定海区高道山附近",
      "province": "浙江省",
      "city": "舟山市",
      "area": "定海区",
      "telephone": "13735005336",
      "detail": 1,
      "uid": "64cbfe4460d09771eb12e44a",
      "detail_info": {
        "classified_poi_tag": "旅游景点;寺庙",
        "tag": "旅游景点;寺庙",
        "navi_location": {
          "lng": 122.19362327178,
          "lat": 30.020466379943
        },
        "type": "scope",
        "detail_url": "http://api.map.baidu.com/place/detail?uid=64cbfe4460d09771eb12e44a&output=html&source=placeapi_v2",
        "overall_rating": "5",
        "comment_num": "1",
        "shop_hours": "07:00-18:00",
        "label": "景区,",
        "children": []
      }
    },
    {
      "name": "龙泉沙滩",
      "location": {
        "lat": 30.714989,
        "lng": 122.781386
      },
      "address": "舟山市嵊泗县嵊山枸杞景区",
      "province": "",
      "city": "",
      "area": "",
      "detail": 1,
      "uid": "ce0878da2c0b803271210b8e",
      "detail_info": {
        "classified_poi_tag": "旅游景点;海滨浴场",
        "tag": "旅游景点;海滨浴场",
        "type": "scope",
        "detail_url": "http://api.map.baidu.com/place/detail?uid=ce0878da2c0b803271210b8e&output=html&source=placeapi_v2",
        "overall_rating": "0",
        "comment_num": "1",
        "shop_hours": "",
        "label": "景区,",
        "children": [],
        "parent_id": "cb358b8b5068d4aa2902e193"
      }
    },
    {
      "name": "西天景区",
      "location": {
        "lat": 29.990337,
        "lng": 122.390772
      },
      "address": "浙江省舟山市普陀区普陀山风景区梅芩路115号",
      "province": "浙江省",
      "city": "舟山市",
      "area": "普陀区",
      "telephone": "(0580)3191919",
      "detail": 1,
      "uid": "9041c5da9bd1db272efaa7ce",
      "detail_info": {
        "classified_poi_tag": "旅游景点;寺庙",
        "new_alias": "普陀山西天景区;普陀山风景名胜区-西天风景区",
        "tag": "旅游景点;寺庙",
        "navi_location": {
          "lng": 122.39075300912,
          "lat": 29.990317980988
        },
        "type": "scope",
        "detail_url": "http://api.map.baidu.com/place/detail?uid=9041c5da9bd1db272efaa7ce&output=html&source=placeapi_v2",
        "overall_rating": "4.7",
        "comment_num": "2",
        "shop_hours": "00:00-24:00",
        "label": "景区,",
        "children": [],
        "parent_id": "a5097bfa3e2a5362f03cbace"
      }
    },
    {
      "name": "观音古洞",
      "location": {
        "lat": 29.98837,
        "lng": 122.381963
      },
      "address": "舟山市普陀区菩提路50号",
      "province": "浙江省",
      "city": "舟山市",
      "area": "普陀区",
      "telephone": "(0580)3191919",
      "detail": 1,
      "uid": "923ffd00a6fcc6cad92f2839",
      "detail_info": {
        "classified_poi_tag": "旅游景点;寺庙",
        "tag": "旅游景点;寺庙",
        "navi_location": {
          "lng": 122.38165919296,
          "lat": 29.986335677675
        },
        "type": "scope",
        "detail_url": "http://api.map.baidu.com/place/detail?uid=923ffd00a6fcc6cad92f2839&output=html&source=placeapi_v2",
        "overall_rating": "4.8",
        "image_num": "14",
        "comment_num": "11",
        "shop_hours": "06:30-16:30",
        "label": "景区,洞穴",
        "children": [],
        "parent_id": "a5097bfa3e2a5362f03cbace"
      }
    },
    {
      "name": "古樟驿",
      "location": {
        "lat": 30.071017,
        "lng": 122.094129
      },
      "address": "舟山市定海区茅叉线",
      "province": "浙江省",
      "city": "舟山市",
      "area": "定海区",
      "telephone": "17816007071,18768045134",
      "detail": 1,
      "uid": "d059375bdff3c1512dfaa718",
      "detail_info": {
        "classified_poi_tag": "旅游景点",
        "tag": "旅游景点",
        "navi_location": {
          "lng": 122.09406820336,
          "lat": 30.071048311284
        },
        "type": "scope",
        "detail_url": "http://api.map.baidu.com/place/detail?uid=d059375bdff3c1512dfaa718&output=html&source=placeapi_v2",
        "comment_num": "6",
        "shop_hours": "",
        "label": "旅游景点",
        "children": []
      }
    },
    {
      "name": "宝陀讲寺",
      "location": {
        "lat": 30.027146,
        "lng": 122.405086
      },
      "address": "舟山市普陀区山海天路201号",
      "province": "浙江省",
      "city": "舟山市",
      "area": "普陀区",
      "telephone": "(0580)3191919",
      "detail": 1,
      "uid": "504d61133bd5b4ce46572639",
      "detail_info": {
        "classified_poi_tag": "旅游景点;寺庙",
        "tag": "旅游景点;寺庙",
        "navi_location": {
          "lng": 122.40415700248,
          "lat": 30.025608874218
        },
        "type": "scope",
        "detail_url": "http://api.map.baidu.com/place/detail?uid=504d61133bd5b4ce46572639&output=html&source=placeapi_v2",
        "overall_rating": "4.8",
        "comment_num": "14",
        "shop_hours": "06:00-16:00",
        "label": "景区,寺庙",
        "children": [],
        "parent_id": "a5097bfa3e2a5362f03cbace"
      }
    },
    {
      "name": "不肯去观音院",
      "location": {
        "lat": 29.984361,
        "lng": 122.400784
      },
      "address": "舟山市普陀区紫竹路117号(紫竹林潮音洞附近)",
      "province": "浙江省",
      "city": "舟山市",
      "area": "普陀区",
      "street_id": "2fd2beab5f07dc517adbd2ef",
      "detail": 1,
      "uid": "2fd2beab5f07dc517adbd2ef",
      "detail_info": {
        "classified_poi_tag": "旅游景点;寺庙",
        "tag": "旅游景点;寺庙",
        "navi_location": {
          "lng": 122.39941671661,
          "lat": 29.98383749629
        },
        "type": "scope",
        "detail_url": "http://api.map.baidu.com/place/detail?uid=2fd2beab5f07dc517adbd2ef&output=html&source=placeapi_v2",
        "overall_rating": "4.6",
        "comment_num": "13",
        "shop_hours": "06:00-17:30",
        "label": "景区,旅游景点",
        "children": [],
        "parent_id": "cb4fd146292a773c9d9d6839"
      }
    },
    {
      "name": "慧隆寺",
      "location": {
        "lat": 29.993643,
        "lng": 122.29644
      },
      "address": "浙江省舟山市普陀区南岙路",
      "province": "浙江省",
      "city": "舟山市",
      "area": "普陀区",
      "telephone": "(0580)3085583",
      "detail": 1,
      "uid": "c63a6cd57ccdc76ff90cad03",
      "detail_info": {
        "classified_poi_tag": "旅游景点;寺庙",
        "tag": "旅游景点;寺庙",
        "navi_location": {
          "lng": 122.29702576426,
          "lat": 29.993824705371
        },
        "type": "scope",
        "detail_url": "http://api.map.baidu.com/place/detail?uid=c63a6cd57ccdc76ff90cad03&output=html&source=placeapi_v2",
        "shop_hours": "",
        "label": "景区,",
        "children": []
      }
    },
    {
      "name": "马岙博物馆",
      "location": {
        "lat": 30.120474,
        "lng": 122.09794
      },
      "address": "舟山市定海区马岙旅游区白马街199号",
      "province": "浙江省",
      "city": "舟山市",
      "area": "定海区",
      "street_id": "d1469ee77ada011f84330439",
      "telephone": "(0580)8080018",
      "detail": 1,
      "uid": "d1469ee77ada011f84330439",
      "detail_info": {
        "classified_poi_tag": "旅游景点;博物馆",
        "tag": "旅游景点;博物馆",
        "navi_location": {
          "lng": 122.09790825286,
          "lat": 30.120750864304
        },
        "type": "scope",
        "detail_url": "http://api.map.baidu.com/place/detail?uid=d1469ee77ada011f84330439&output=html&source=placeapi_v2",
        "overall_rating": "4.6",
        "comment_num": "4",
        "shop_hours": "08:00-11:00,13:30-16:30",
        "label": "景区,博物馆 展馆",
        "children": [],
        "parent_id": "333e818a9081d123ab175ab5"
      }
    },
    {
      "name": "沙龙沙滩旅游景点",
      "location": {
        "lat": 30.46527,
        "lng": 122.378193
      },
      "address": "浙江省舟山市岱山县沙冷线与四石线交叉口东北约180米",
      "province": "浙江省",
      "city": "舟山市",
      "area": "岱山县",
      "detail": 1,
      "uid": "495552a2a252ccaa49cc4aa0",
      "detail_info": {
        "classified_poi_tag": "旅游景点",
        "tag": "旅游景点",
        "navi_location": {
          "lng": 122.37777258838,
          "lat": 30.46518654503
        },
        "type": "scope",
        "detail_url": "http://api.map.baidu.com/place/detail?uid=495552a2a252ccaa49cc4aa0&output=html&source=placeapi_v2",
        "overall_rating": "2.7",
        "comment_num": "4",
        "shop_hours": "00:00-24:00",
        "label": "景区,",
        "children": []
      }
    },
    {
      "name": "老佃房沙滩",
      "location": {
        "lat": 29.941747,
        "lng": 122.425094
      },
      "address": "浙江省舟山市普陀区老佃房村",
      "province": "浙江省",
      "city": "舟山市",
      "area": "普陀区",
      "detail": 1,
      "uid": "63909838766b66ac45e27474",
      "detail_info": {
        "classified_poi_tag": "旅游景点;自然景观;风景区",
        "tag": "旅游景点;风景区",
        "navi_location": {
          "lng": 122.42500078499,
          "lat": 29.941774317704
        },
        "type": "scope",
        "detail_url": "http://api.map.baidu.com/place/detail?uid=63909838766b66ac45e27474&output=html&source=placeapi_v2",
        "overall_rating": "2.4",
        "image_num": "4",
        "comment_num": "9",
        "shop_hours": "",
        "label": "景区,",
        "children": [],
        "parent_id": "97eb88c3414c34f18a36ee31"
      }
    },
    {
      "name": "灵音禅寺",
      "location": {
        "lat": 30.711113,
        "lng": 122.501803
      },
      "address": "舟山市嵊泗县泗礁山岛东部田岙村大悲山景区内",
      "province": "浙江省",
      "city": "舟山市",
      "area": "嵊泗县",
      "street_id": "101bc61b47b690bac42ba105",
      "detail": 1,
      "uid": "101bc61b47b690bac42ba105",
      "detail_info": {
        "classified_poi_tag": "旅游景点;寺庙",
        "new_alias": "灵音寺",
        "tag": "旅游景点;寺庙",
        "navi_location": {
          "lng": 122.50029228804,
          "lat": 30.709905595328
        },
        "type": "scope",
        "detail_url": "http://api.map.baidu.com/place/detail?uid=101bc61b47b690bac42ba105&output=html&source=placeapi_v2",
        "overall_rating": "3.7",
        "comment_num": "2",
        "shop_hours": "06:00-18:00",
        "label": "景区,旅游景点",
        "children": [],
        "parent_id": "205ca63cf5ceccaeea12e44b"
      }
    },
    {
      "name": "隆教禅寺",
      "location": {
        "lat": 30.106123,
        "lng": 122.136059
      },
      "address": "舟山市定海区干览镇双龙路21号",
      "province": "浙江省",
      "city": "舟山市",
      "area": "定海区",
      "detail": 1,
      "uid": "f757e6eeaad2b514270bd0e2",
      "detail_info": {
        "classified_poi_tag": "旅游景点;寺庙",
        "tag": "旅游景点;寺庙",
        "navi_location": {
          "lng": 122.13691060571,
          "lat": 30.106858387561
        },
        "type": "scope",
        "detail_url": "http://api.map.baidu.com/place/detail?uid=f757e6eeaad2b514270bd0e2&output=html&source=placeapi_v2",
        "overall_rating": "4.7",
        "image_num": "4",
        "comment_num": "3",
        "shop_hours": "",
        "label": "景区,",
        "children": []
      }
    },
    {
      "name": "慧云寺",
      "location": {
        "lat": 30.03149,
        "lng": 122.250016
      },
      "address": "浙江省舟山市定海区临城街道高峰两高线慧云禅寺",
      "province": "浙江省",
      "city": "舟山市",
      "area": "定海区",
      "detail": 1,
      "uid": "8ab0dfc46f47c06bd8ecedee",
      "detail_info": {
        "classified_poi_tag": "旅游景点;寺庙",
        "new_alias": "慧云禅寺",
        "tag": "旅游景点;寺庙",
        "navi_location": {
          "lng": 122.2492265262,
          "lat": 30.03050845666
        },
        "type": "scope",
        "detail_url": "http://api.map.baidu.com/place/detail?uid=8ab0dfc46f47c06bd8ecedee&output=html&source=placeapi_v2",
        "overall_rating": "3.7",
        "comment_num": "4",
        "shop_hours": "",
        "label": "景区,",
        "children": []
      }
    },
    {
      "name": "洋山大指头景区",
      "location": {
        "lat": 30.623102,
        "lng": 122.112303
      },
      "address": "浙江省舟山市嵊泗县洋山大指头景区(东海大道北)",
      "province": "浙江省",
      "city": "舟山市",
      "area": "嵊泗县",
      "street_id": "",
      "detail": 1,
      "uid": "fa05fb382d267fda0782c2a9",
      "detail_info": {
        "classified_poi_tag": "旅游景点;自然景观;风景区",
        "new_alias": "洋山深水港大指头景区;洋山深水港观光游览区大指头景区",
        "tag": "旅游景点;风景区",
        "navi_location": {
          "lng": 122.11200965182,
          "lat": 30.623256018898
        },
        "type": "scope",
        "detail_url": "http://api.map.baidu.com/place/detail?uid=fa05fb382d267fda0782c2a9&output=html&source=placeapi_v2",
        "overall_rating": "3.2",
        "comment_num": "14",
        "shop_hours": "09:00-15:40",
        "label": "景区,",
        "children": [],
        "parent_id": "5d35d9bd5161b06bcb213dd2"
      }
    },
    {
      "name": "六合朝阳景区六井潭-观日平台",
      "location": {
        "lat": 30.726478,
        "lng": 122.542184
      },
      "address": "舟山市嵊泗县五龙乡六井潭景区内",
      "province": "浙江省",
      "city": "舟山市",
      "area": "嵊泗县",
      "detail": 1,
      "uid": "a02598c4bd96a09ed02dd64c",
      "detail_info": {
        "classified_poi_tag": "旅游景点",
        "tag": "旅游景点",
        "type": "scope",
        "detail_url": "http://api.map.baidu.com/place/detail?uid=a02598c4bd96a09ed02dd64c&output=html&source=placeapi_v2",
        "overall_rating": "5",
        "comment_num": "1",
        "shop_hours": "",
        "label": "景区,",
        "children": [],
        "parent_id": "783e0106b16874628e77278c"
      }
    },
    {
      "name": "大青山里沙海滨浴场",
      "location": {
        "lat": 29.863964,
        "lng": 122.402741
      },
      "address": "浙江省舟山市普陀区朱家尖大青山国家公园内",
      "province": "",
      "city": "",
      "area": "",
      "telephone": "(0580)6031226",
      "detail": 1,
      "uid": "171fadc56d6643a6e311030a",
      "detail_info": {
        "classified_poi_tag": "旅游景点;海滨浴场",
        "tag": "旅游景点;海滨浴场",
        "navi_location": {
          "lng": 122.400033656,
          "lat": 29.86285914731
        },
        "type": "scope",
        "detail_url": "http://api.map.baidu.com/place/detail?uid=171fadc56d6643a6e311030a&output=html&source=placeapi_v2",
        "overall_rating": "3.5",
        "image_num": "10",
        "comment_num": "5",
        "shop_hours": "08:00-17:00",
        "label": "景区,",
        "children": [],
        "parent_id": "93cbb0b7fc3a4d6de3110385"
      }
    },
    {
      "name": "螺塘线露营地",
      "location": {
        "lat": 30.033859,
        "lng": 122.329823
      },
      "address": "浙江省舟山市普陀区那云星辰大海上的天空之城项目部南侧150米",
      "province": "浙江省",
      "city": "舟山市",
      "area": "普陀区",
      "detail": 1,
      "uid": "2d1d81ced5cca4e0a5da39cc",
      "detail_info": {
        "classified_poi_tag": "旅游景点;露营地",
        "tag": "旅游景点;其他",
        "navi_location": {
          "lng": 122.32995032706,
          "lat": 30.033445538329
        },
        "type": "scope",
        "detail_url": "http://api.map.baidu.com/place/detail?uid=2d1d81ced5cca4e0a5da39cc&output=html&source=placeapi_v2",
        "overall_rating": "5",
        "comment_num": "2",
        "shop_hours": "00:00-24:00",
        "label": "景区,",
        "children": []
      }
    },
    {
      "name": "塘头石子滩营地",
      "location": {
        "lat": 30.045566,
        "lng": 122.314172
      },
      "address": "浙江省舟山市普陀区螺塘线塘头石子滩营地",
      "province": "浙江省",
      "city": "舟山市",
      "area": "普陀区",
      "telephone": "13905801568",
      "detail": 1,
      "uid": "2040d04654e88d2543e192f4",
      "detail_info": {
        "classified_poi_tag": "旅游景点",
        "new_alias": "塘头石子滩营地(舟山最美公路)",
        "tag": "旅游景点",
        "navi_location": {
          "lng": 122.31619853274,
          "lat": 30.042212511321
        },
        "type": "scope",
        "detail_url": "http://api.map.baidu.com/place/detail?uid=2040d04654e88d2543e192f4&output=html&source=placeapi_v2",
        "overall_rating": "3.7",
        "image_num": "4",
        "comment_num": "8",
        "shop_hours": "08:00-18:30",
        "label": "景区,",
        "children": []
      }
    },
    {
      "name": "舟山鸦片战争纪念馆",
      "location": {
        "lat": 30.017548,
        "lng": 122.092679
      },
      "address": "舟山市定海区环城南路竹山公园内",
      "province": "浙江省",
      "city": "舟山市",
      "area": "定海区",
      "street_id": "",
      "telephone": "(0580)2380424",
      "detail": 1,
      "uid": "7fd72311d1e70f9c5cbe86ee",
      "detail_info": {
        "classified_poi_tag": "旅游景点;人文景观;文物古迹",
        "tag": "旅游景点;博物馆",
        "navi_location": {
          "lng": 122.0955953165,
          "lat": 30.015780117369
        },
        "type": "scope",
        "detail_url": "http://api.map.baidu.com/place/detail?uid=7fd72311d1e70f9c5cbe86ee&output=html&source=placeapi_v2",
        "overall_rating": "2.3",
        "comment_num": "5",
        "shop_hours": "08:30-11:30,13:30-16:30",
        "label": "景区,",
        "children": [],
        "parent_id": "161a0ed2bae1cd535cd4feee"
      }
    },
    {
      "name": "五雷寺",
      "location": {
        "lat": 30.089328,
        "lng": 122.119423
      },
      "address": "浙江省舟山市定海区干览镇五雷寺",
      "province": "浙江省",
      "city": "舟山市",
      "area": "定海区",
      "detail": 1,
      "uid": "533511c31cd331ef9222e02d",
      "detail_info": {
        "classified_poi_tag": "旅游景点;寺庙",
        "new_alias": "五雷禅寺",
        "tag": "旅游景点;寺庙",
        "navi_location": {
          "lng": 122.12016580227,
          "lat": 30.088886197475
        },
        "type": "scope",
        "detail_url": "http://api.map.baidu.com/place/detail?uid=533511c31cd331ef9222e02d&output=html&source=placeapi_v2",
        "overall_rating": "4.8",
        "comment_num": "5",
        "shop_hours": "",
        "label": "景区,",
        "children": []
      }
    },
    {
      "name": "大王村沙滩",
      "location": {
        "lat": 30.720109,
        "lng": 122.788989
      },
      "address": "舟山市嵊泗县枸杞岛景区内",
      "province": "浙江省",
      "city": "舟山市",
      "area": "嵊泗县",
      "detail": 1,
      "uid": "b55c94dd3ed133cdf4231068",
      "detail_info": {
        "classified_poi_tag": "旅游景点;海滨浴场",
        "new_alias": "大王沙滩;枸杞岛大王沙滩",
        "tag": "旅游景点;海滨浴场",
        "type": "scope",
        "detail_url": "http://api.map.baidu.com/place/detail?uid=b55c94dd3ed133cdf4231068&output=html&source=placeapi_v2",
        "overall_rating": "3.6",
        "comment_num": "14",
        "shop_hours": "08:00-19:00",
        "label": "景区,",
        "children": [],
        "parent_id": "cb358b8b5068d4aa2902e193"
      }
    },
    {
      "name": "岱山县科技馆",
      "location": {
        "lat": 30.345561,
        "lng": 122.188367
      },
      "address": "浙江省舟山市岱山县东沙镇东沙社区居拷门大坝",
      "province": "浙江省",
      "city": "舟山市",
      "area": "岱山县",
      "telephone": "(0580)7091311",
      "detail": 1,
      "uid": "34e48508d014e2e1d8d891e9",
      "detail_info": {
        "classified_poi_tag": "旅游景点;科技馆",
        "new_alias": "台风博物馆;中国台风博物馆",
        "tag": "旅游景点;其他",
        "navi_location": {
          "lng": 122.1883719206,
          "lat": 30.345242185136
        },
        "type": "scope",
        "detail_url": "http://api.map.baidu.com/place/detail?uid=34e48508d014e2e1d8d891e9&output=html&source=placeapi_v2",
        "overall_rating": "4.0",
        "comment_num": "10",
        "shop_hours": "08:45-12:00,14:00-17:30",
        "label": "景区,",
        "children": []
      }
    },
    {
      "name": "佛手石",
      "location": {
        "lat": 30.858665,
        "lng": 122.700385
      },
      "address": "舟山市嵊泗县花鸟岛内",
      "province": "浙江省",
      "city": "舟山市",
      "area": "嵊泗县",
      "detail": 1,
      "uid": "4352a1fc68638fdfe5e9659a",
      "detail_info": {
        "classified_poi_tag": "旅游景点",
        "tag": "旅游景点",
        "type": "scope",
        "detail_url": "http://api.map.baidu.com/place/detail?uid=4352a1fc68638fdfe5e9659a&output=html&source=placeapi_v2",
        "overall_rating": "5",
        "comment_num": "5",
        "shop_hours": "",
        "label": "景区,",
        "children": [],
        "parent_id": "90e85b0f6c32c1794afd3f0d"
      }
    },
    {
      "name": "南瓜山",
      "location": {
        "lat": 30.023608,
        "lng": 122.21149
      },
      "address": "舟山市定海区长洞线",
      "province": "浙江省",
      "city": "舟山市",
      "area": "定海区",
      "street_id": "c3c9aadb6c20787a2db96dae",
      "detail": 1,
      "uid": "c3c9aadb6c20787a2db96dae",
      "detail_info": {
        "classified_poi_tag": "旅游景点",
        "tag": "旅游景点",
        "navi_location": {
          "lng": 122.2110886563,
          "lat": 30.022720778836
        },
        "type": "scope",
        "detail_url": "http://api.map.baidu.com/place/detail?uid=c3c9aadb6c20787a2db96dae&output=html&source=placeapi_v2",
        "overall_rating": "0",
        "image_num": "5",
        "comment_num": "1",
        "shop_hours": "",
        "label": "景区,",
        "children": []
      }
    },
    {
      "name": "七彩滩营地",
      "location": {
        "lat": 29.695147,
        "lng": 122.20897
      },
      "address": "浙江省舟山市普陀区沿港路188号",
      "province": "浙江省",
      "city": "舟山市",
      "area": "普陀区",
      "detail": 1,
      "uid": "d7ba25d25171edce077ce8e2",
      "detail_info": {
        "classified_poi_tag": "旅游景点;露营地",
        "tag": "旅游景点;其他",
        "navi_location": {
          "lng": 122.20898843971,
          "lat": 29.696178729136
        },
        "type": "scope",
        "detail_url": "http://api.map.baidu.com/place/detail?uid=d7ba25d25171edce077ce8e2&output=html&source=placeapi_v2",
        "overall_rating": "2",
        "image_num": "15",
        "comment_num": "5",
        "shop_hours": "",
        "label": "景区,",
        "children": []
      }
    },
    {
      "name": "花鸟灯塔",
      "location": {
        "lat": 30.864337,
        "lng": 122.683952
      },
      "address": "浙江省舟山市嵊泗县花鸟乡灯塔村",
      "province": "浙江省",
      "city": "舟山市",
      "area": "嵊泗县",
      "detail": 1,
      "uid": "22a8831ed2c5147002897228",
      "detail_info": {
        "classified_poi_tag": "旅游景点",
        "tag": "旅游景点",
        "navi_location": {
          "lng": 122.68390961124,
          "lat": 30.86407750033
        },
        "type": "scope",
        "detail_url": "http://api.map.baidu.com/place/detail?uid=22a8831ed2c5147002897228&output=html&source=placeapi_v2",
        "overall_rating": "4.7",
        "comment_num": "11",
        "shop_hours": "00:00-24:00",
        "label": "景区,古建筑",
        "children": [],
        "parent_id": "90e85b0f6c32c1794afd3f0d"
      }
    },
    {
      "name": "古禅林",
      "location": {
        "lat": 30.106722,
        "lng": 122.137118
      },
      "address": "浙江省舟山市定海区干平线",
      "province": "浙江省",
      "city": "舟山市",
      "area": "定海区",
      "telephone": "13957211458",
      "detail": 1,
      "uid": "e1e9a50c0980b11fb21e363e",
      "detail_info": {
        "classified_poi_tag": "旅游景点",
        "tag": "旅游景点",
        "navi_location": {
          "lng": 122.1371404743,
          "lat": 30.106790807727
        },
        "type": "scope",
        "detail_url": "http://api.map.baidu.com/place/detail?uid=e1e9a50c0980b11fb21e363e&output=html&source=placeapi_v2",
        "shop_hours": "08:00-17:00",
        "label": "旅游景点",
        "children": []
      }
    },
    {
      "name": "如心公园",
      "location": {
        "lat": 29.982622,
        "lng": 122.185419
      },
      "address": "浙江省舟山市定海区长峙岛新城大桥下",
      "province": "浙江省",
      "city": "舟山市",
      "area": "定海区",
      "street_id": "42825242fe6b764ab5147f54",
      "detail": 1,
      "uid": "42825242fe6b764ab5147f54",
      "detail_info": {
        "classified_poi_tag": "旅游景点;公园",
        "new_alias": "长峙岛如心樱花公园",
        "tag": "旅游景点;公园",
        "navi_location": {
          "lng": 122.1850303935,
          "lat": 29.98240537087
        },
        "type": "scope",
        "detail_url": "http://api.map.baidu.com/place/detail?uid=42825242fe6b764ab5147f54&output=html&source=placeapi_v2",
        "overall_rating": "2.5",
        "comment_num": "3",
        "shop_hours": "00:00-24:00",
        "label": "景区,",
        "children": []
      }
    },
    {
      "name": "薄刀嘴岛-露营地",
      "location": {
        "lat": 30.62126,
        "lng": 122.153047
      },
      "address": "浙江省舟山市嵊泗县洋山镇薄刀嘴岛",
      "province": "浙江省",
      "city": "舟山市",
      "area": "嵊泗县",
      "detail": 1,
      "uid": "26b313c229495d57e81e9730",
      "detail_info": {
        "classified_poi_tag": "旅游景点;露营地",
        "tag": "旅游景点;其他",
        "navi_location": {
          "lng": 122.15251945435,
          "lat": 30.621598643673
        },
        "type": "scope",
        "detail_url": "http://api.map.baidu.com/place/detail?uid=26b313c229495d57e81e9730&output=html&source=placeapi_v2",
        "comment_num": "1",
        "shop_hours": "",
        "label": "旅游景点 露营地",
        "children": []
      }
    },
    {
      "name": "百鸟园",
      "location": {
        "lat": 30.022123,
        "lng": 122.291024
      },
      "address": "潭弄路与展螺线交叉路口往西北约290米",
      "province": "浙江省",
      "city": "舟山市",
      "area": "普陀区",
      "street_id": "6da63a9584c3453294ec84d5",
      "telephone": "13957234052",
      "detail": 1,
      "uid": "6da63a9584c3453294ec84d5",
      "detail_info": {
        "classified_poi_tag": "旅游景点;自然景观;风景区",
        "tag": "旅游景点;风景区",
        "navi_location": {
          "lng": 122.28987078914,
          "lat": 30.02086646474
        },
        "type": "scope",
        "detail_url": "http://api.map.baidu.com/place/detail?uid=6da63a9584c3453294ec84d5&output=html&source=placeapi_v2",
        "overall_rating": "3.3",
        "comment_num": "4",
        "shop_hours": "08:00-17:00",
        "label": "景区,",
        "children": [],
        "parent_id": "d9868a57f89160710b69d9ea"
      }
    },
    {
      "name": "燕窝礁",
      "location": {
        "lat": 30.353728,
        "lng": 122.184646
      },
      "address": "舟山市岱山县东黄线",
      "province": "浙江省",
      "city": "舟山市",
      "area": "岱山县",
      "detail": 1,
      "uid": "be54cde92a283e5b78f796f3",
      "detail_info": {
        "classified_poi_tag": "旅游景点",
        "tag": "旅游景点",
        "navi_location": {
          "lng": 122.18406162197,
          "lat": 30.352925066119
        },
        "type": "scope",
        "detail_url": "http://api.map.baidu.com/place/detail?uid=be54cde92a283e5b78f796f3&output=html&source=placeapi_v2",
        "shop_hours": "",
        "label": "景区,",
        "children": []
      }
    },
    {
      "name": "鹅鼻岭营地",
      "location": {
        "lat": 30.116051,
        "lng": 122.025574
      },
      "address": "浙江省舟山市定海区",
      "province": "浙江省",
      "city": "舟山市",
      "area": "定海区",
      "detail": 1,
      "uid": "ee809848ba67b4552fb17eb5",
      "detail_info": {
        "classified_poi_tag": "旅游景点;露营地",
        "tag": "旅游景点;其他",
        "navi_location": {
          "lng": 122.02603009166,
          "lat": 30.116417783163
        },
        "type": "scope",
        "detail_url": "http://api.map.baidu.com/place/detail?uid=ee809848ba67b4552fb17eb5&output=html&source=placeapi_v2",
        "overall_rating": "3.5",
        "image_num": "4",
        "comment_num": "3",
        "shop_hours": "",
        "label": "景区,",
        "children": []
      }
    }
  ]
}